{
"type": "FeatureCollection",
"features": [
{ "type": "Feature", "properties": { "state": "Iowa", "address": "3306 Oak Avenue Lime Springs 52155, United States", "company": null, "plant_access": 1 }, "geometry": { "type": "Point", "coordinates": [ -92.27755, 43.468494 ] } },
{ "type": "Feature", "properties": { "state": "Iowa", "address": "13242 Aspen Avenue Postville 52162, United States", "company": null, "plant_access": 1 }, "geometry": { "type": "Point", "coordinates": [ -91.575211, 43.033939 ] } },
{ "type": "Feature", "properties": { "state": "Iowa", "address": "12673 160th Street Postville 52162, United States", "company": null, "plant_access": 1 }, "geometry": { "type": "Point", "coordinates": [ -91.550613, 42.987549 ] } },
{ "type": "Feature", "properties": { "state": "Iowa", "address": "1286 210th Avenue Ossian 52161, United States", "company": null, "plant_access": 1 }, "geometry": { "type": "Point", "coordinates": [ -91.812195, 43.122772 ] } },
{ "type": "Feature", "properties": { "state": "Iowa", "address": "10130 U.S. 18 Postville 52162, United States", "company": null, "plant_access": 1 }, "geometry": { "type": "Point", "coordinates": [ -91.59761, 43.078049 ] } },
{ "type": "Feature", "properties": { "state": "Iowa", "address": "13013 240th Street West Union 52175, United States", "company": null, "plant_access": 1 }, "geometry": { "type": "Point", "coordinates": [ -91.844925, 42.977451 ] } },
{ "type": "Feature", "properties": { "state": "Iowa", "address": "920 Waterville Road Waterville 52170, United States", "company": null, "plant_access": 1 }, "geometry": { "type": "Point", "coordinates": [ -91.344948, 43.20155 ] } },
{ "type": "Feature", "properties": { "state": "Iowa", "address": "1627 Racine Trail Woodbine 51579, United States", "company": null, "plant_access": 1 }, "geometry": { "type": "Point", "coordinates": [ -95.694931, 41.774132 ] } },
{ "type": "Feature", "properties": { "state": "Iowa", "address": "1652 127th Avenue Castalia 52133, United States", "company": null, "plant_access": 1 }, "geometry": { "type": "Point", "coordinates": [ -91.638077, 43.174782 ] } },
{ "type": "Feature", "properties": { "state": "Iowa", "address": "1617 127th Avenue Castalia 52133, United States", "company": null, "plant_access": 1 }, "geometry": { "type": "Point", "coordinates": [ -91.646637, 43.170265 ] } },
{ "type": "Feature", "properties": { "state": "Iowa", "address": "2237 Twin Springs Road Decorah 52101, United States", "company": null, "plant_access": 1 }, "geometry": { "type": "Point", "coordinates": [ -91.840012, 43.292278 ] } },
{ "type": "Feature", "properties": { "state": "Iowa", "address": "2747 160th Street Fort Atkinson 52144, United States", "company": null, "plant_access": 1 }, "geometry": { "type": "Point", "coordinates": [ -91.944321, 43.168095 ] } },
{ "type": "Feature", "properties": { "state": "Iowa", "address": "13013 U.S. 18 Postville 52162, United States", "company": null, "plant_access": 1 }, "geometry": { "type": "Point", "coordinates": [ -91.546585, 43.074032 ] } },
{ "type": "Feature", "properties": { "state": "Iowa", "address": "Unnamed Road Lansing 52151, United States", "company": null, "plant_access": 1 }, "geometry": { "type": "Point", "coordinates": [ -91.326424, 43.340031 ] } },
{ "type": "Feature", "properties": { "state": "Alabama", "address": "Roanoke 36274, United States", "company": null, "plant_access": 1 }, "geometry": { "type": "Point", "coordinates": [ -85.341187, 33.278881 ] } },
{ "type": "Feature", "properties": { "state": "Alabama", "address": "1388 County Road 55 Fort Payne 35967, United States", "company": null, "plant_access": 4 }, "geometry": { "type": "Point", "coordinates": [ -85.777252, 34.311867 ] } },
{ "type": "Feature", "properties": { "state": "Alabama", "address": "10050 Martling Road Albertville 35951, United States", "company": null, "plant_access": 4 }, "geometry": { "type": "Point", "coordinates": [ -86.146172, 34.400181 ] } },
{ "type": "Feature", "properties": { "state": "Alabama", "address": "302 Martling Road Albertville 35950, United States", "company": null, "plant_access": 4 }, "geometry": { "type": "Point", "coordinates": [ -86.143929, 34.397739 ] } },
{ "type": "Feature", "properties": { "state": "Alabama", "address": "18700 County Road 87 Woodland 36280, United States", "company": null, "plant_access": 1 }, "geometry": { "type": "Point", "coordinates": [ -85.304283, 33.388004 ] } },
{ "type": "Feature", "properties": { "state": "Alabama", "address": "236 County Road 984 Fort Payne 35968, United States", "company": null, "plant_access": 4 }, "geometry": { "type": "Point", "coordinates": [ -85.744003, 34.573311 ] } },
{ "type": "Feature", "properties": { "state": "Alabama", "address": "53 Private Road 1501 Ozark 36360, United States", "company": null, "plant_access": 4 }, "geometry": { "type": "Point", "coordinates": [ -85.565964, 31.4151 ] } },
{ "type": "Feature", "properties": { "state": "Alabama", "address": "2231 Henry County 57 Abbeville 36310, United States", "company": null, "plant_access": 3 }, "geometry": { "type": "Point", "coordinates": [ -85.182007, 31.529411 ] } },
{ "type": "Feature", "properties": { "state": "Alabama", "address": "752 County Road 339 Russellville 35654, United States", "company": null, "plant_access": 3 }, "geometry": { "type": "Point", "coordinates": [ -87.528755, 34.483559 ] } },
{ "type": "Feature", "properties": { "state": "Alabama", "address": "1126 County Road 442 Kinston 36453, United States", "company": null, "plant_access": 3 }, "geometry": { "type": "Point", "coordinates": [ -86.171944, 31.298889 ] } },
{ "type": "Feature", "properties": { "state": "Alabama", "address": "25 County Road 23 Clio 36017, United States", "company": null, "plant_access": 4 }, "geometry": { "type": "Point", "coordinates": [ -85.572647, 31.696449 ] } },
{ "type": "Feature", "properties": { "state": "Alabama", "address": "Unnamed Road Ariton 36311, United States", "company": null, "plant_access": 4 }, "geometry": { "type": "Point", "coordinates": [ -85.58773, 31.586657 ] } },
{ "type": "Feature", "properties": { "state": "Alabama", "address": "85 West Street Daleville 36322, United States", "company": null, "plant_access": 3 }, "geometry": { "type": "Point", "coordinates": [ -85.75087, 31.239864 ] } },
{ "type": "Feature", "properties": { "state": "Alabama", "address": "1934 South Moodys Crossroads Road Rutledge 36071, United States", "company": null, "plant_access": 3 }, "geometry": { "type": "Point", "coordinates": [ -86.383614, 31.714443 ] } },
{ "type": "Feature", "properties": { "state": "Alabama", "address": "60 County Road 9 Louisville 36048, United States", "company": null, "plant_access": 4 }, "geometry": { "type": "Point", "coordinates": [ -85.649033, 31.788855 ] } },
{ "type": "Feature", "properties": { "state": "Alabama", "address": "1763 Williamson Road Luverne 36049, United States", "company": null, "plant_access": 3 }, "geometry": { "type": "Point", "coordinates": [ -86.405556, 31.802221 ] } },
{ "type": "Feature", "properties": { "state": "Alabama", "address": "949 Brock Chapel Road Union Grove 35175, United States", "company": null, "plant_access": 4 }, "geometry": { "type": "Point", "coordinates": [ -86.491295, 34.441002 ] } },
{ "type": "Feature", "properties": { "state": "Alabama", "address": "865 Brock Chapel Road Union Grove 35175, United States", "company": null, "plant_access": 4 }, "geometry": { "type": "Point", "coordinates": [ -86.495117, 34.440384 ] } },
{ "type": "Feature", "properties": { "state": "Alabama", "address": "Alabama 48 Graham 36263, United States", "company": null, "plant_access": 1 }, "geometry": { "type": "Point", "coordinates": [ -85.329567, 33.457024 ] } },
{ "type": "Feature", "properties": { "state": "Alabama", "address": "31109 County Road 434 Graham 36263, United States", "company": null, "plant_access": 1 }, "geometry": { "type": "Point", "coordinates": [ -85.348557, 33.454235 ] } },
{ "type": "Feature", "properties": { "state": "Alabama", "address": "6182 State Highway 173 Newville 36353, United States", "company": null, "plant_access": 4 }, "geometry": { "type": "Point", "coordinates": [ -85.318275, 31.412024 ] } },
{ "type": "Feature", "properties": { "state": "Alabama", "address": "781 County Road 350 Hackleburg 35564, United States", "company": null, "plant_access": 2 }, "geometry": { "type": "Point", "coordinates": [ -87.82428, 34.231194 ] } },
{ "type": "Feature", "properties": { "state": "Alabama", "address": "1963 County Highway 25 Guntersville 35976, United States", "company": null, "plant_access": 4 }, "geometry": { "type": "Point", "coordinates": [ -86.46637, 34.219913 ] } },
{ "type": "Feature", "properties": { "state": "Alabama", "address": "1019 Craze Road Hartselle 35640, United States", "company": null, "plant_access": 4 }, "geometry": { "type": "Point", "coordinates": [ -87.054573, 34.44418 ] } },
{ "type": "Feature", "properties": { "state": "Alabama", "address": "1503 County Road 86 Centre 35960, United States", "company": null, "plant_access": 3 }, "geometry": { "type": "Point", "coordinates": [ -85.506973, 34.173573 ] } },
{ "type": "Feature", "properties": { "state": "Alabama", "address": "2785 County Road 160 Centre 35960, United States", "company": null, "plant_access": 4 }, "geometry": { "type": "Point", "coordinates": [ -85.489838, 34.148323 ] } },
{ "type": "Feature", "properties": { "state": "Alabama", "address": "1415 County Road 384 Crossville 35962, United States", "company": null, "plant_access": 4 }, "geometry": { "type": "Point", "coordinates": [ -86.0467, 34.25293 ] } },
{ "type": "Feature", "properties": { "state": "Alabama", "address": "7324 Alabama 40 Henagar 35978, United States", "company": null, "plant_access": 4 }, "geometry": { "type": "Point", "coordinates": [ -85.732071, 34.612167 ] } },
{ "type": "Feature", "properties": { "state": "Alabama", "address": "377 County Road 1957 Rainsville 35986, United States", "company": null, "plant_access": 4 }, "geometry": { "type": "Point", "coordinates": [ -85.781326, 34.513233 ] } },
{ "type": "Feature", "properties": { "state": "Alabama", "address": "541 County Road 4425 Brundidge 36010, United States", "company": null, "plant_access": 4 }, "geometry": { "type": "Point", "coordinates": [ -85.763908, 31.641914 ] } },
{ "type": "Feature", "properties": { "state": "Alabama", "address": "Farrior Road Luverne 36049, United States", "company": null, "plant_access": 4 }, "geometry": { "type": "Point", "coordinates": [ -86.21917, 31.82361 ] } },
{ "type": "Feature", "properties": { "state": "Alabama", "address": "15902 Alabama 168 Boaz 35957, United States", "company": null, "plant_access": 4 }, "geometry": { "type": "Point", "coordinates": [ -86.10083, 34.256111 ] } },
{ "type": "Feature", "properties": { "state": "Alabama", "address": "Henry County 83 Headland 36345, United States", "company": null, "plant_access": 4 }, "geometry": { "type": "Point", "coordinates": [ -85.407188, 31.391106 ] } },
{ "type": "Feature", "properties": { "state": "Alabama", "address": "2210 Gilliam Springs Road Northwest Arab 35016, United States", "company": null, "plant_access": 4 }, "geometry": { "type": "Point", "coordinates": [ -86.512009, 34.358532 ] } },
{ "type": "Feature", "properties": { "state": "Alabama", "address": "1312 County Road 479 Albertville 35951, United States", "company": null, "plant_access": 4 }, "geometry": { "type": "Point", "coordinates": [ -86.088608, 34.257221 ] } },
{ "type": "Feature", "properties": { "state": "Alabama", "address": "1166 Canyon Road Hodges 35571, United States", "company": null, "plant_access": 1 }, "geometry": { "type": "Point", "coordinates": [ -87.928734, 34.349686 ] } },
{ "type": "Feature", "properties": { "state": "Alabama", "address": "120 County Road 166 Phil Campbell 35581, United States", "company": null, "plant_access": 3 }, "geometry": { "type": "Point", "coordinates": [ -87.705498, 34.298721 ] } },
{ "type": "Feature", "properties": { "state": "Alabama", "address": "137-304 Earlie Ferguson Road Millry 36558, United States", "company": null, "plant_access": 1 }, "geometry": { "type": "Point", "coordinates": [ -88.408241, 31.684895 ] } },
{ "type": "Feature", "properties": { "state": "Alabama", "address": "1254 County Road 68 Ariton 36311, United States", "company": null, "plant_access": 4 }, "geometry": { "type": "Point", "coordinates": [ -85.590012, 31.602398 ] } },
{ "type": "Feature", "properties": { "state": "Alabama", "address": "414 Fowler Road Oneonta 35121, United States", "company": null, "plant_access": 4 }, "geometry": { "type": "Point", "coordinates": [ -86.381088, 33.938885 ] } },
{ "type": "Feature", "properties": { "state": "Alabama", "address": "150 County Road 351 Midland City 36350, United States", "company": null, "plant_access": 4 }, "geometry": { "type": "Point", "coordinates": [ -85.429726, 31.47974 ] } },
{ "type": "Feature", "properties": { "state": "Alabama", "address": "2578 County Highway 48 Blountsville 35031, United States", "company": null, "plant_access": 4 }, "geometry": { "type": "Point", "coordinates": [ -86.506615, 34.208775 ] } },
{ "type": "Feature", "properties": { "state": "Alabama", "address": "2068 County Road 39 Woodland 36280, United States", "company": null, "plant_access": 1 }, "geometry": { "type": "Point", "coordinates": [ -85.300102, 33.337425 ] } },
{ "type": "Feature", "properties": { "state": "Alabama", "address": "1317 County Road 32 Wedowee 36278, United States", "company": null, "plant_access": 1 }, "geometry": { "type": "Point", "coordinates": [ -85.522591, 33.334789 ] } },
{ "type": "Feature", "properties": { "state": "Alabama", "address": "142 County Road 262 Town Creek 35672, United States", "company": null, "plant_access": 2 }, "geometry": { "type": "Point", "coordinates": [ -87.403038, 34.635075 ] } },
{ "type": "Feature", "properties": { "state": "Alabama", "address": "3426 County Road 61 Midland City 36350, United States", "company": null, "plant_access": 4 }, "geometry": { "type": "Point", "coordinates": [ -85.485054, 31.408224 ] } },
{ "type": "Feature", "properties": { "state": "Alabama", "address": "457 County Road 347 Midland City 36350, United States", "company": null, "plant_access": 4 }, "geometry": { "type": "Point", "coordinates": [ -85.517616, 31.468697 ] } },
{ "type": "Feature", "properties": { "state": "Alabama", "address": "5326 County Road 6647 Banks 36005, United States", "company": null, "plant_access": 4 }, "geometry": { "type": "Point", "coordinates": [ -85.816292, 31.776119 ] } },
{ "type": "Feature", "properties": { "state": "Alabama", "address": "C R 127 Banks 36005, United States", "company": null, "plant_access": 4 }, "geometry": { "type": "Point", "coordinates": [ -85.693611, 31.761335 ] } },
{ "type": "Feature", "properties": { "state": "Alabama", "address": "2453 Hustleville Road Albertville 35951, United States", "company": null, "plant_access": 4 }, "geometry": { "type": "Point", "coordinates": [ -86.181564, 34.315723 ] } },
{ "type": "Feature", "properties": { "state": "Alabama", "address": "1967 County Road 1043 Cullman 35057, United States", "company": null, "plant_access": 4 }, "geometry": { "type": "Point", "coordinates": [ -87.001434, 34.212307 ] } },
{ "type": "Feature", "properties": { "state": "Alabama", "address": "5070 County Road 83 Pisgah 35765, United States", "company": null, "plant_access": 4 }, "geometry": { "type": "Point", "coordinates": [ -85.778389, 34.683224 ] } },
{ "type": "Feature", "properties": { "state": "Alabama", "address": "3350 County Road 8 Hanceville 35077, United States", "company": null, "plant_access": 4 }, "geometry": { "type": "Point", "coordinates": [ -86.957146, 33.962231 ] } },
{ "type": "Feature", "properties": { "state": "Alabama", "address": "1329 Water Tank Road Louisville 36048, United States", "company": null, "plant_access": 4 }, "geometry": { "type": "Point", "coordinates": [ -85.576378, 31.84104 ] } },
{ "type": "Feature", "properties": { "state": "Alabama", "address": "4000 Alabama 68 Gaylesville 35973, United States", "company": null, "plant_access": 4 }, "geometry": { "type": "Point", "coordinates": [ -85.571655, 34.260983 ] } },
{ "type": "Feature", "properties": { "state": "Alabama", "address": "315 County Road 585 Cullman 35055, United States", "company": null, "plant_access": 4 }, "geometry": { "type": "Point", "coordinates": [ -86.685089, 34.188194 ] } },
{ "type": "Feature", "properties": { "state": "Alabama", "address": "1874 County Road 48 Heflin 36264, United States", "company": null, "plant_access": 2 }, "geometry": { "type": "Point", "coordinates": [ -85.373604, 33.595467 ] } },
{ "type": "Feature", "properties": { "state": "Alabama", "address": "1454 Ashley Road Blountsville 35031, United States", "company": null, "plant_access": 4 }, "geometry": { "type": "Point", "coordinates": [ -86.621902, 34.094971 ] } },
{ "type": "Feature", "properties": { "state": "Alabama", "address": "265 County Road 706 Woodland 36280, United States", "company": null, "plant_access": 1 }, "geometry": { "type": "Point", "coordinates": [ -85.36644, 33.28117 ] } },
{ "type": "Feature", "properties": { "state": "Alabama", "address": "1825 County Road 57 Lineville 36266, United States", "company": null, "plant_access": 1 }, "geometry": { "type": "Point", "coordinates": [ -85.635315, 33.329754 ] } },
{ "type": "Feature", "properties": { "state": "Alabama", "address": "358 County Road 8 Midland City 36350, United States", "company": null, "plant_access": 4 }, "geometry": { "type": "Point", "coordinates": [ -85.47007, 31.418234 ] } },
{ "type": "Feature", "properties": { "state": "Alabama", "address": "430 North Johnson Chapel Road Hartselle 35640, United States", "company": null, "plant_access": 4 }, "geometry": { "type": "Point", "coordinates": [ -87.08448, 34.427753 ] } },
{ "type": "Feature", "properties": { "state": "Alabama", "address": "111 County Road 107 Delta 36258, United States", "company": null, "plant_access": 2 }, "geometry": { "type": "Point", "coordinates": [ -85.656181, 33.5065 ] } },
{ "type": "Feature", "properties": { "state": "Alabama", "address": "1365 County Road 675 Valley Head 35989, United States", "company": null, "plant_access": 4 }, "geometry": { "type": "Point", "coordinates": [ -85.716385, 34.593163 ] } },
{ "type": "Feature", "properties": { "state": "Alabama", "address": "7265 Alabama 9 Centre 35960, United States", "company": null, "plant_access": 4 }, "geometry": { "type": "Point", "coordinates": [ -85.629272, 34.080635 ] } },
{ "type": "Feature", "properties": { "state": "Alabama", "address": "970 Cherokee County 32 Piedmont 36272, United States", "company": null, "plant_access": 4 }, "geometry": { "type": "Point", "coordinates": [ -85.742546, 34.064877 ] } },
{ "type": "Feature", "properties": { "state": "Alabama", "address": "1161 Alabama 68 Collinsville 35961, United States", "company": null, "plant_access": 4 }, "geometry": { "type": "Point", "coordinates": [ -85.797546, 34.236103 ] } },
{ "type": "Feature", "properties": { "state": "Alabama", "address": "6746 Meriwether Trail Honoraville 36042, United States", "company": null, "plant_access": 3 }, "geometry": { "type": "Point", "coordinates": [ -86.415161, 31.951464 ] } },
{ "type": "Feature", "properties": { "state": "Alabama", "address": "2323 County Road 57 Lineville 36266, United States", "company": null, "plant_access": 1 }, "geometry": { "type": "Point", "coordinates": [ -85.64138, 33.330978 ] } },
{ "type": "Feature", "properties": { "state": "Alabama", "address": "3124 County Road 57 Abbeville 36310, United States", "company": null, "plant_access": 3 }, "geometry": { "type": "Point", "coordinates": [ -85.160736, 31.594778 ] } },
{ "type": "Feature", "properties": { "state": "Alabama", "address": "7470 Alabama 168 Boaz 35957, United States", "company": null, "plant_access": 4 }, "geometry": { "type": "Point", "coordinates": [ -86.206657, 34.18885 ] } },
{ "type": "Feature", "properties": { "state": "Alabama", "address": "82029 U.S. 278 Blountsville 35031, United States", "company": null, "plant_access": 4 }, "geometry": { "type": "Point", "coordinates": [ -86.467674, 34.161438 ] } },
{ "type": "Feature", "properties": { "state": "Alabama", "address": "19414 Alabama 227 Grove Oak 35975, United States", "company": null, "plant_access": 4 }, "geometry": { "type": "Point", "coordinates": [ -86.053551, 34.429508 ] } },
{ "type": "Feature", "properties": { "state": "Alabama", "address": "7897 Alabama 68 Collinsville 35961, United States", "company": null, "plant_access": 4 }, "geometry": { "type": "Point", "coordinates": [ -85.919411, 34.289501 ] } },
{ "type": "Feature", "properties": { "state": "Alabama", "address": "7824 Alabama 68 Collinsville 35961, United States", "company": null, "plant_access": 4 }, "geometry": { "type": "Point", "coordinates": [ -85.917099, 34.291496 ] } },
{ "type": "Feature", "properties": { "state": "Alabama", "address": "12890 Alabama 27 Newville 36353, United States", "company": null, "plant_access": 4 }, "geometry": { "type": "Point", "coordinates": [ -85.450676, 31.484453 ] } },
{ "type": "Feature", "properties": { "state": "Alabama", "address": "255 Swick Farm Road Phil Campbell 35581, United States", "company": null, "plant_access": 3 }, "geometry": { "type": "Point", "coordinates": [ -87.725479, 34.29948 ] } },
{ "type": "Feature", "properties": { "state": "Alabama", "address": "1540 County Road 105 Jack 36346, United States", "company": null, "plant_access": 4 }, "geometry": { "type": "Point", "coordinates": [ -85.884224, 31.549269 ] } },
{ "type": "Feature", "properties": { "state": "Alabama", "address": "135 County Road 1684 Holly Pond 35083, United States", "company": null, "plant_access": 4 }, "geometry": { "type": "Point", "coordinates": [ -86.612411, 34.227585 ] } },
{ "type": "Feature", "properties": { "state": "Alabama", "address": "23927 Indian Creek Road Opp 36467, United States", "company": null, "plant_access": 2 }, "geometry": { "type": "Point", "coordinates": [ -86.303001, 31.238913 ] } },
{ "type": "Feature", "properties": { "state": "Alabama", "address": "773 County Road 852 Crane Hill 35053, United States", "company": null, "plant_access": 4 }, "geometry": { "type": "Point", "coordinates": [ -87.043114, 34.08564 ] } },
{ "type": "Feature", "properties": { "state": "Alabama", "address": "5690 Fall City Road Jasper 35503, United States", "company": null, "plant_access": 3 }, "geometry": { "type": "Point", "coordinates": [ -87.279625, 33.981247 ] } },
{ "type": "Feature", "properties": { "state": "Alabama", "address": "7304 County Road 13 Delta 36258, United States", "company": null, "plant_access": 2 }, "geometry": { "type": "Point", "coordinates": [ -85.691246, 33.552586 ] } },
{ "type": "Feature", "properties": { "state": "Alabama", "address": "384 U.S. 43 Phil Campbell 35581, United States", "company": null, "plant_access": 2 }, "geometry": { "type": "Point", "coordinates": [ -87.779869, 34.307915 ] } },
{ "type": "Feature", "properties": { "state": "Alabama", "address": "803 Wyers Road Eldridge 35554, United States", "company": null, "plant_access": 3 }, "geometry": { "type": "Point", "coordinates": [ -87.61676, 33.934059 ] } },
{ "type": "Feature", "properties": { "state": "Alabama", "address": "431 Freedom Drive Enterprise 36330, United States", "company": null, "plant_access": 3 }, "geometry": { "type": "Point", "coordinates": [ -85.794304, 31.325983 ] } },
{ "type": "Feature", "properties": { "state": "Alabama", "address": "500 Eberhart Road Southeast Fort Payne 35967, United States", "company": null, "plant_access": 4 }, "geometry": { "type": "Point", "coordinates": [ -85.698029, 34.402081 ] } },
{ "type": "Feature", "properties": { "state": "Alabama", "address": "6850 Alabama 68 Gaylesville 35973, United States", "company": null, "plant_access": 4 }, "geometry": { "type": "Point", "coordinates": [ -85.53083, 34.281349 ] } },
{ "type": "Feature", "properties": { "state": "Alabama", "address": "279 County Road 115 Section 35771, United States", "company": null, "plant_access": 4 }, "geometry": { "type": "Point", "coordinates": [ -85.987518, 34.506706 ] } },
{ "type": "Feature", "properties": { "state": "Alabama", "address": "Cody Kennedy Road Louisville 36048, United States", "company": null, "plant_access": 4 }, "geometry": { "type": "Point", "coordinates": [ -85.607071, 31.834738 ] } },
{ "type": "Feature", "properties": { "state": "Alabama", "address": "2065 County Road 6 Hartford 36344, United States", "company": null, "plant_access": 3 }, "geometry": { "type": "Point", "coordinates": [ -85.801544, 31.041807 ] } },
{ "type": "Feature", "properties": { "state": "Alabama", "address": "983 County Road 2243 Goshen 36035, United States", "company": null, "plant_access": 4 }, "geometry": { "type": "Point", "coordinates": [ -86.110893, 31.770077 ] } },
{ "type": "Feature", "properties": { "state": "Alabama", "address": "2531 County Road 119 Fort Payne 35968, United States", "company": null, "plant_access": 4 }, "geometry": { "type": "Point", "coordinates": [ -85.752312, 34.536037 ] } },
{ "type": "Feature", "properties": { "state": "Alabama", "address": "910 County Road 590 Fort Payne 35968, United States", "company": null, "plant_access": 4 }, "geometry": { "type": "Point", "coordinates": [ -85.749832, 34.544376 ] } },
{ "type": "Feature", "properties": { "state": "Alabama", "address": "3839 Alexandria-Wellington Road Wellington 36279, United States", "company": null, "plant_access": 4 }, "geometry": { "type": "Point", "coordinates": [ -85.889458, 33.792477 ] } },
{ "type": "Feature", "properties": { "state": "Alabama", "address": "1722 County Road 255 Fort Payne 35967, United States", "company": null, "plant_access": 4 }, "geometry": { "type": "Point", "coordinates": [ -85.684418, 34.379345 ] } },
{ "type": "Feature", "properties": { "state": "Alabama", "address": "8087-8203 County Road 203 Danville 35619, United States", "company": null, "plant_access": 4 }, "geometry": { "type": "Point", "coordinates": [ -87.162895, 34.446465 ] } },
{ "type": "Feature", "properties": { "state": "Alabama", "address": "2085 Nix Mill Pond Road Hackleburg 35564, United States", "company": null, "plant_access": 2 }, "geometry": { "type": "Point", "coordinates": [ -87.811363, 34.241623 ] } },
{ "type": "Feature", "properties": { "state": "Alabama", "address": "269 County Road 649 Pisgah 35765, United States", "company": null, "plant_access": 4 }, "geometry": { "type": "Point", "coordinates": [ -85.83963, 34.666401 ] } },
{ "type": "Feature", "properties": { "state": "Alabama", "address": "6468 Bowden Road Honoraville 36042, United States", "company": null, "plant_access": 3 }, "geometry": { "type": "Point", "coordinates": [ -86.399055, 31.939676 ] } },
{ "type": "Feature", "properties": { "state": "Alabama", "address": "1091 Lake Frankie Road Samson 36477, United States", "company": null, "plant_access": 3 }, "geometry": { "type": "Point", "coordinates": [ -86.047661, 31.131731 ] } },
{ "type": "Feature", "properties": { "state": "Alabama", "address": "8865 County Road 7708 Troy 36081, United States", "company": null, "plant_access": 4 }, "geometry": { "type": "Point", "coordinates": [ -85.91481, 31.94021 ] } },
{ "type": "Feature", "properties": { "state": "Alabama", "address": "1792 County Road 482 Crossville 35962, United States", "company": null, "plant_access": 4 }, "geometry": { "type": "Point", "coordinates": [ -86.052238, 34.318218 ] } },
{ "type": "Feature", "properties": { "state": "Alabama", "address": "1978 County Road 20 Dawson 35963, United States", "company": null, "plant_access": 4 }, "geometry": { "type": "Point", "coordinates": [ -85.95356, 34.32095 ] } },
{ "type": "Feature", "properties": { "state": "Alabama", "address": "3295 Eva Road Eva 35621, United States", "company": null, "plant_access": 4 }, "geometry": { "type": "Point", "coordinates": [ -86.771675, 34.353436 ] } },
{ "type": "Feature", "properties": { "state": "Alabama", "address": "8711 County Road 65 Fruithurst 36262, United States", "company": null, "plant_access": 3 }, "geometry": { "type": "Point", "coordinates": [ -85.422112, 33.835949 ] } },
{ "type": "Feature", "properties": { "state": "Alabama", "address": "158 Lawrence Cove Road Eva 35621, United States", "company": null, "plant_access": 4 }, "geometry": { "type": "Point", "coordinates": [ -86.75679, 34.375458 ] } },
{ "type": "Feature", "properties": { "state": "Alabama", "address": "1914 Barfield Fire Department Road Lineville 36266, United States", "company": null, "plant_access": 2 }, "geometry": { "type": "Point", "coordinates": [ -85.740387, 33.375748 ] } },
{ "type": "Feature", "properties": { "state": "Alabama", "address": "743 County Road 440 Kinston 36453, United States", "company": null, "plant_access": 3 }, "geometry": { "type": "Point", "coordinates": [ -86.167252, 31.308027 ] } },
{ "type": "Feature", "properties": { "state": "Alabama", "address": "6515 County Road 63 Russellville 35654, United States", "company": null, "plant_access": 2 }, "geometry": { "type": "Point", "coordinates": [ -87.723854, 34.449097 ] } },
{ "type": "Feature", "properties": { "state": "Alabama", "address": "6153 Powell Road Brantley 36009, United States", "company": null, "plant_access": 3 }, "geometry": { "type": "Point", "coordinates": [ -86.179443, 31.554167 ] } },
{ "type": "Feature", "properties": { "state": "Alabama", "address": "2234 County Road 262 Town Creek 35672, United States", "company": null, "plant_access": 2 }, "geometry": { "type": "Point", "coordinates": [ -87.379219, 34.636269 ] } },
{ "type": "Feature", "properties": { "state": "Alabama", "address": "486 County Road 453 Courtland 35618, United States", "company": null, "plant_access": 2 }, "geometry": { "type": "Point", "coordinates": [ -87.356941, 34.635277 ] } },
{ "type": "Feature", "properties": { "state": "Alabama", "address": "2420 Waldrep Loop Leighton 35646, United States", "company": null, "plant_access": 2 }, "geometry": { "type": "Point", "coordinates": [ -87.544411, 34.593143 ] } },
{ "type": "Feature", "properties": { "state": "Alabama", "address": "770 Logan Lane Leighton 35646, United States", "company": null, "plant_access": 2 }, "geometry": { "type": "Point", "coordinates": [ -87.552513, 34.590073 ] } },
{ "type": "Feature", "properties": { "state": "Alabama", "address": "11861 Alabama 172 Hackleburg 35564, United States", "company": null, "plant_access": 1 }, "geometry": { "type": "Point", "coordinates": [ -87.865051, 34.287445 ] } },
{ "type": "Feature", "properties": { "state": "Alabama", "address": "23029 Colquett Road Opp 36467, United States", "company": null, "plant_access": 2 }, "geometry": { "type": "Point", "coordinates": [ -86.230026, 31.323811 ] } },
{ "type": "Feature", "properties": { "state": "Alabama", "address": "166 Huey Faulk Road Ariton 36311, United States", "company": null, "plant_access": 4 }, "geometry": { "type": "Point", "coordinates": [ -85.622833, 31.619972 ] } },
{ "type": "Feature", "properties": { "state": "Alabama", "address": "80 County Road 1485 Cullman 35058, United States", "company": null, "plant_access": 4 }, "geometry": { "type": "Point", "coordinates": [ -86.794884, 34.244305 ] } },
{ "type": "Feature", "properties": { "state": "Alabama", "address": "565 County Road 7711 Troy 36081, United States", "company": null, "plant_access": 4 }, "geometry": { "type": "Point", "coordinates": [ -85.913315, 31.992657 ] } },
{ "type": "Feature", "properties": { "state": "Alabama", "address": "169 County Road 672 Ranburne 36273, United States", "company": null, "plant_access": 1 }, "geometry": { "type": "Point", "coordinates": [ -85.344109, 33.562515 ] } },
{ "type": "Feature", "properties": { "state": "Alabama", "address": "Waldo 35160, United States", "company": null, "plant_access": 1 }, "geometry": { "type": "Point", "coordinates": [ -86.20607, 33.449772 ] } },
{ "type": "Feature", "properties": { "state": "Alabama", "address": "1000 County Road 70 Grove Oak 35975, United States", "company": null, "plant_access": 4 }, "geometry": { "type": "Point", "coordinates": [ -86.023651, 34.412876 ] } },
{ "type": "Feature", "properties": { "state": "Alabama", "address": "3394 County Road 221 Moulton 35650, United States", "company": null, "plant_access": 3 }, "geometry": { "type": "Point", "coordinates": [ -87.173126, 34.493256 ] } },
{ "type": "Feature", "properties": { "state": "Alabama", "address": "1455 County Road 87 Russellville 35654, United States", "company": null, "plant_access": 3 }, "geometry": { "type": "Point", "coordinates": [ -87.588264, 34.497246 ] } },
{ "type": "Feature", "properties": { "state": "Alabama", "address": "3234 Conecuh County 51 McKenzie 36456, United States", "company": null, "plant_access": 1 }, "geometry": { "type": "Point", "coordinates": [ -86.716881, 31.517834 ] } },
{ "type": "Feature", "properties": { "state": "Alabama", "address": "2040 County Road 621 Woodland 36280, United States", "company": null, "plant_access": 1 }, "geometry": { "type": "Point", "coordinates": [ -85.348503, 33.315441 ] } },
{ "type": "Feature", "properties": { "state": "Alabama", "address": "2443 County Road 53 Hackleburg 35564, United States", "company": null, "plant_access": 1 }, "geometry": { "type": "Point", "coordinates": [ -87.877434, 34.279938 ] } },
{ "type": "Feature", "properties": { "state": "Alabama", "address": "600 County Road 137 Jack 36346, United States", "company": null, "plant_access": 4 }, "geometry": { "type": "Point", "coordinates": [ -85.885605, 31.534031 ] } },
{ "type": "Feature", "properties": { "state": "Alabama", "address": "4630 County Road 460 Samson 36477, United States", "company": null, "plant_access": 3 }, "geometry": { "type": "Point", "coordinates": [ -86.097893, 31.256342 ] } },
{ "type": "Feature", "properties": { "state": "Alabama", "address": "3767 County Road 1570 Baileyton 35019, United States", "company": null, "plant_access": 4 }, "geometry": { "type": "Point", "coordinates": [ -86.605217, 34.284698 ] } },
{ "type": "Feature", "properties": { "state": "Alabama", "address": "255 Bethel Church Road Fort Deposit 36032, United States", "company": null, "plant_access": 2 }, "geometry": { "type": "Point", "coordinates": [ -86.492424, 31.958302 ] } },
{ "type": "Feature", "properties": { "state": "Alabama", "address": "105 County Road 454 Heflin 36264, United States", "company": null, "plant_access": 2 }, "geometry": { "type": "Point", "coordinates": [ -85.434097, 33.631012 ] } },
{ "type": "Feature", "properties": { "state": "Alabama", "address": "282 Lamont Street Roanoke 36274, United States", "company": null, "plant_access": 1 }, "geometry": { "type": "Point", "coordinates": [ -85.346886, 33.33036 ] } },
{ "type": "Feature", "properties": { "state": "Alabama", "address": "1249 Niles Road Boaz 35957, United States", "company": null, "plant_access": 4 }, "geometry": { "type": "Point", "coordinates": [ -86.223427, 34.203457 ] } },
{ "type": "Feature", "properties": { "state": "Alabama", "address": "195 Chaney Branch Road Clio 36017, United States", "company": null, "plant_access": 4 }, "geometry": { "type": "Point", "coordinates": [ -85.477394, 31.686914 ] } },
{ "type": "Feature", "properties": { "state": "Alabama", "address": "190 Chaney Branch Road Clio 36017, United States", "company": null, "plant_access": 4 }, "geometry": { "type": "Point", "coordinates": [ -85.476273, 31.69128 ] } },
{ "type": "Feature", "properties": { "state": "Alabama", "address": "3001 County Road 730 Henagar 35978, United States", "company": null, "plant_access": 4 }, "geometry": { "type": "Point", "coordinates": [ -85.624115, 34.670231 ] } },
{ "type": "Feature", "properties": { "state": "Alabama", "address": "640 Camp Creek Road Hackleburg 35564, United States", "company": null, "plant_access": 2 }, "geometry": { "type": "Point", "coordinates": [ -87.836342, 34.16803 ] } },
{ "type": "Feature", "properties": { "state": "Alabama", "address": "1285 7th Avenue Forest Home 36030, United States", "company": null, "plant_access": 1 }, "geometry": { "type": "Point", "coordinates": [ -86.83728, 31.841185 ] } },
{ "type": "Feature", "properties": { "state": "Alabama", "address": "782 County Road 266 Enterprise 36330, United States", "company": null, "plant_access": 4 }, "geometry": { "type": "Point", "coordinates": [ -85.881752, 31.391262 ] } },
{ "type": "Feature", "properties": { "state": "Alabama", "address": "760 Burton Loop Road Altoona 35952, United States", "company": null, "plant_access": 4 }, "geometry": { "type": "Point", "coordinates": [ -86.314888, 33.9832 ] } },
{ "type": "Feature", "properties": { "state": "Alabama", "address": "19882 Alabama 87 Elba 36323, United States", "company": null, "plant_access": 3 }, "geometry": { "type": "Point", "coordinates": [ -86.06929, 31.445715 ] } },
{ "type": "Feature", "properties": { "state": "Alabama", "address": "3988 County Road 105 Jack 36346, United States", "company": null, "plant_access": 4 }, "geometry": { "type": "Point", "coordinates": [ -85.830833, 31.577778 ] } },
{ "type": "Feature", "properties": { "state": "Alabama", "address": "26100 Chatham Lane Opp 36467, United States", "company": null, "plant_access": 2 }, "geometry": { "type": "Point", "coordinates": [ -86.269867, 31.364586 ] } },
{ "type": "Feature", "properties": { "state": "Alabama", "address": "920 County Road 24 Piedmont 36272, United States", "company": null, "plant_access": 4 }, "geometry": { "type": "Point", "coordinates": [ -85.736786, 34.015614 ] } },
{ "type": "Feature", "properties": { "state": "Alabama", "address": "362 Mayfield Road Albertville 35951, United States", "company": null, "plant_access": 4 }, "geometry": { "type": "Point", "coordinates": [ -86.131355, 34.407074 ] } },
{ "type": "Feature", "properties": { "state": "Alabama", "address": "12296 Alabama 101 Town Creek 35672, United States", "company": null, "plant_access": 2 }, "geometry": { "type": "Point", "coordinates": [ -87.40873, 34.633354 ] } },
{ "type": "Feature", "properties": { "state": "Alabama", "address": "1578 McVey Road Lineville 36266, United States", "company": null, "plant_access": 2 }, "geometry": { "type": "Point", "coordinates": [ -85.729202, 33.350479 ] } },
{ "type": "Feature", "properties": { "state": "Alabama", "address": "2132 County Road 7705 Troy 36081, United States", "company": null, "plant_access": 4 }, "geometry": { "type": "Point", "coordinates": [ -85.91185, 32.022785 ] } },
{ "type": "Feature", "properties": { "state": "Alabama", "address": "1092 County Road 134 Town Creek 35672, United States", "company": null, "plant_access": 2 }, "geometry": { "type": "Point", "coordinates": [ -87.478462, 34.567776 ] } },
{ "type": "Feature", "properties": { "state": "Alabama", "address": "1422 County Road 200 Danville 35619, United States", "company": null, "plant_access": 4 }, "geometry": { "type": "Point", "coordinates": [ -87.117683, 34.373878 ] } },
{ "type": "Feature", "properties": { "state": "Alabama", "address": "13999 County Road 89 Opp 36467, United States", "company": null, "plant_access": 3 }, "geometry": { "type": "Point", "coordinates": [ -86.200485, 31.182135 ] } },
{ "type": "Feature", "properties": { "state": "Alabama", "address": "1056 County Road 372 Flat Rock 35966, United States", "company": null, "plant_access": 4 }, "geometry": { "type": "Point", "coordinates": [ -85.599106, 34.75769 ] } },
{ "type": "Feature", "properties": { "state": "Alabama", "address": "5969 Martling Road Albertville 35951, United States", "company": null, "plant_access": 4 }, "geometry": { "type": "Point", "coordinates": [ -86.162888, 34.387329 ] } },
{ "type": "Feature", "properties": { "state": "Alabama", "address": "15478 County Road 82 Newell 36280, United States", "company": null, "plant_access": 1 }, "geometry": { "type": "Point", "coordinates": [ -85.425247, 33.433754 ] } },
{ "type": "Feature", "properties": { "state": "Alabama", "address": "627 Feemster Gap Road Arab 35016, United States", "company": null, "plant_access": 4 }, "geometry": { "type": "Point", "coordinates": [ -86.446762, 34.286381 ] } },
{ "type": "Feature", "properties": { "state": "Alabama", "address": "2564 County Road 473 Newell 36280, United States", "company": null, "plant_access": 2 }, "geometry": { "type": "Point", "coordinates": [ -85.434921, 33.440983 ] } },
{ "type": "Feature", "properties": { "state": "Alabama", "address": "23 County Road 15 Ariton 36311, United States", "company": null, "plant_access": 4 }, "geometry": { "type": "Point", "coordinates": [ -85.604553, 31.58264 ] } },
{ "type": "Feature", "properties": { "state": "Alabama", "address": "2279 County Road 76 Fyffe 35971, United States", "company": null, "plant_access": 4 }, "geometry": { "type": "Point", "coordinates": [ -85.947868, 34.434406 ] } },
{ "type": "Feature", "properties": { "state": "Alabama", "address": "701 Barron Drive Fyffe 35971, United States", "company": null, "plant_access": 4 }, "geometry": { "type": "Point", "coordinates": [ -85.923386, 34.440445 ] } },
{ "type": "Feature", "properties": { "state": "Alabama", "address": "County Road 419 Heflin 36264, United States", "company": null, "plant_access": 2 }, "geometry": { "type": "Point", "coordinates": [ -85.53891, 33.65704 ] } },
{ "type": "Feature", "properties": { "state": "Alabama", "address": "637 639 641travis Wise Road Samson 36477, United States", "company": null, "plant_access": 3 }, "geometry": { "type": "Point", "coordinates": [ -86.045006, 31.175661 ] } },
{ "type": "Feature", "properties": { "state": "Alabama", "address": "Ozark 36360, United States", "company": null, "plant_access": 4 }, "geometry": { "type": "Point", "coordinates": [ -85.590492, 31.522793 ] } },
{ "type": "Feature", "properties": { "state": "Alabama", "address": "526 Nichols Bluff Road Brantley 36009, United States", "company": null, "plant_access": 3 }, "geometry": { "type": "Point", "coordinates": [ -86.324814, 31.631989 ] } },
{ "type": "Feature", "properties": { "state": "Alabama", "address": "8657 Warrenton Road Guntersville 35976, United States", "company": null, "plant_access": 4 }, "geometry": { "type": "Point", "coordinates": [ -86.420258, 34.258072 ] } },
{ "type": "Feature", "properties": { "state": "Alabama", "address": "465 County Road 236 Town Creek 35672, United States", "company": null, "plant_access": 2 }, "geometry": { "type": "Point", "coordinates": [ -87.504532, 34.598522 ] } },
{ "type": "Feature", "properties": { "state": "Alabama", "address": "269 Irvin Lane Boaz 35957, United States", "company": null, "plant_access": 4 }, "geometry": { "type": "Point", "coordinates": [ -86.365845, 34.130688 ] } },
{ "type": "Feature", "properties": { "state": "Alabama", "address": "381 Creel Road Boaz 35957, United States", "company": null, "plant_access": 4 }, "geometry": { "type": "Point", "coordinates": [ -86.29306, 34.16206 ] } },
{ "type": "Feature", "properties": { "state": "Alabama", "address": "1996 County Road 63 Woodland 36280, United States", "company": null, "plant_access": 1 }, "geometry": { "type": "Point", "coordinates": [ -85.377274, 33.298328 ] } },
{ "type": "Feature", "properties": { "state": "Alabama", "address": "10643 Steiner Store Road Fort Deposit 36032, United States", "company": null, "plant_access": 3 }, "geometry": { "type": "Point", "coordinates": [ -86.462364, 31.944668 ] } },
{ "type": "Feature", "properties": { "state": "Alabama", "address": "620 Alabama 51 Louisville 36048, United States", "company": null, "plant_access": 4 }, "geometry": { "type": "Point", "coordinates": [ -85.492607, 31.841877 ] } },
{ "type": "Feature", "properties": { "state": "Alabama", "address": "342 County Road 460 Mount Hope 35651, United States", "company": null, "plant_access": 3 }, "geometry": { "type": "Point", "coordinates": [ -87.528435, 34.465851 ] } },
{ "type": "Feature", "properties": { "state": "Alabama", "address": "4203 Alexandria-Wellington Road Wellington 36279, United States", "company": null, "plant_access": 4 }, "geometry": { "type": "Point", "coordinates": [ -85.886955, 33.79752 ] } },
{ "type": "Feature", "properties": { "state": "Alabama", "address": "156 County Road 429 Fyffe 35971, United States", "company": null, "plant_access": 4 }, "geometry": { "type": "Point", "coordinates": [ -85.956207, 34.445282 ] } },
{ "type": "Feature", "properties": { "state": "Alabama", "address": "945 Cook Road Phil Campbell 35581, United States", "company": null, "plant_access": 1 }, "geometry": { "type": "Point", "coordinates": [ -87.839714, 34.33744 ] } },
{ "type": "Feature", "properties": { "state": "Alabama", "address": "3074 Patton Chapel Road Lincoln 35096, United States", "company": null, "plant_access": 4 }, "geometry": { "type": "Point", "coordinates": [ -86.071098, 33.637222 ] } },
{ "type": "Feature", "properties": { "state": "Alabama", "address": "8144 South County Road 67 Midland City 36350, United States", "company": null, "plant_access": 4 }, "geometry": { "type": "Point", "coordinates": [ -85.483513, 31.359068 ] } },
{ "type": "Feature", "properties": { "state": "Alabama", "address": "356 County Road 15 Danville 35619, United States", "company": null, "plant_access": 4 }, "geometry": { "type": "Point", "coordinates": [ -87.108337, 34.358658 ] } },
{ "type": "Feature", "properties": { "state": "Alabama", "address": "642 Witt Store Road Russellville 35654, United States", "company": null, "plant_access": 2 }, "geometry": { "type": "Point", "coordinates": [ -87.541878, 34.569599 ] } },
{ "type": "Feature", "properties": { "state": "Alabama", "address": "1274 Mount Carmel Road Altoona 35952, United States", "company": null, "plant_access": 4 }, "geometry": { "type": "Point", "coordinates": [ -86.342545, 34.105797 ] } },
{ "type": "Feature", "properties": { "state": "Alabama", "address": "492 County Road 3337 Brundidge 36010, United States", "company": null, "plant_access": 4 }, "geometry": { "type": "Point", "coordinates": [ -85.885956, 31.670715 ] } },
{ "type": "Feature", "properties": { "state": "Alabama", "address": "1775 County Road 23 Mount Hope 35651, United States", "company": null, "plant_access": 3 }, "geometry": { "type": "Point", "coordinates": [ -87.524384, 34.440769 ] } },
{ "type": "Feature", "properties": { "state": "Alabama", "address": "4703 Spring Hill Road Brantley 36009, United States", "company": null, "plant_access": 3 }, "geometry": { "type": "Point", "coordinates": [ -86.2845, 31.58992 ] } },
{ "type": "Feature", "properties": { "state": "Alabama", "address": "95 County Road 6 Piedmont 36272, United States", "company": null, "plant_access": 4 }, "geometry": { "type": "Point", "coordinates": [ -85.722206, 33.974003 ] } },
{ "type": "Feature", "properties": { "state": "Alabama", "address": "3582 County Road 61 Pisgah 35765, United States", "company": null, "plant_access": 4 }, "geometry": { "type": "Point", "coordinates": [ -85.786736, 34.676769 ] } },
{ "type": "Feature", "properties": { "state": "Alabama", "address": "30 Nichols Road Altoona 35952, United States", "company": null, "plant_access": 4 }, "geometry": { "type": "Point", "coordinates": [ -86.29113, 34.017483 ] } },
{ "type": "Feature", "properties": { "state": "Alabama", "address": "601 Black Bottom Road Boaz 35956, United States", "company": null, "plant_access": 4 }, "geometry": { "type": "Point", "coordinates": [ -86.209473, 34.155716 ] } },
{ "type": "Feature", "properties": { "state": "Alabama", "address": "3376 Jim Weed Road Ozark 36360, United States", "company": null, "plant_access": 4 }, "geometry": { "type": "Point", "coordinates": [ -85.779922, 31.534727 ] } },
{ "type": "Feature", "properties": { "state": "Alabama", "address": "11000 County Road 16 Roanoke 36274, United States", "company": null, "plant_access": 2 }, "geometry": { "type": "Point", "coordinates": [ -85.25721, 33.116322 ] } },
{ "type": "Feature", "properties": { "state": "Alabama", "address": "781 Milton Road Rutledge 36071, United States", "company": null, "plant_access": 3 }, "geometry": { "type": "Point", "coordinates": [ -86.371544, 31.686623 ] } },
{ "type": "Feature", "properties": { "state": "Alabama", "address": "21109 Holt Road Athens 35613, United States", "company": null, "plant_access": 1 }, "geometry": { "type": "Point", "coordinates": [ -86.895454, 34.863113 ] } },
{ "type": "Feature", "properties": { "state": "Alabama", "address": "494 Milligan Road Falkville 35622, United States", "company": null, "plant_access": 4 }, "geometry": { "type": "Point", "coordinates": [ -86.818794, 34.31321 ] } },
{ "type": "Feature", "properties": { "state": "Alabama", "address": "820 County Road 66 Section 35771, United States", "company": null, "plant_access": 4 }, "geometry": { "type": "Point", "coordinates": [ -86.040642, 34.53553 ] } },
{ "type": "Feature", "properties": { "state": "Alabama", "address": "572 County Road 48 Mount Hope 35651, United States", "company": null, "plant_access": 2 }, "geometry": { "type": "Point", "coordinates": [ -87.456467, 34.493488 ] } },
{ "type": "Feature", "properties": { "state": "Alabama", "address": "1998 Bearden Road Horton 35980, United States", "company": null, "plant_access": 4 }, "geometry": { "type": "Point", "coordinates": [ -86.34684, 34.216232 ] } },
{ "type": "Feature", "properties": { "state": "Alabama", "address": "3056 County Road 608 New Brockton 36351, United States", "company": null, "plant_access": 3 }, "geometry": { "type": "Point", "coordinates": [ -86.00708, 31.279387 ] } },
{ "type": "Feature", "properties": { "state": "Alabama", "address": "3460 County Road 411 Grove Oak 35975, United States", "company": null, "plant_access": 4 }, "geometry": { "type": "Point", "coordinates": [ -85.992523, 34.44492 ] } },
{ "type": "Feature", "properties": { "state": "Alabama", "address": "402 Davis Farm Road Hackleburg 35564, United States", "company": null, "plant_access": 2 }, "geometry": { "type": "Point", "coordinates": [ -87.821899, 34.246643 ] } },
{ "type": "Feature", "properties": { "state": "Alabama", "address": "3625 County Road 479 Boaz 35957, United States", "company": null, "plant_access": 4 }, "geometry": { "type": "Point", "coordinates": [ -86.074303, 34.22683 ] } },
{ "type": "Feature", "properties": { "state": "Alabama", "address": "46906 U.S. 11 Valley Head 35989, United States", "company": null, "plant_access": 1 }, "geometry": { "type": "Point", "coordinates": [ -85.567123, 34.692818 ] } },
{ "type": "Feature", "properties": { "state": "Alabama", "address": "1951 County Road 89 Anderson 35610, United States", "company": null, "plant_access": 2 }, "geometry": { "type": "Point", "coordinates": [ -87.321144, 34.91584 ] } },
{ "type": "Feature", "properties": { "state": "Alabama", "address": "375 County Road 798 Cullman 35055, United States", "company": null, "plant_access": 4 }, "geometry": { "type": "Point", "coordinates": [ -86.671272, 34.169415 ] } },
{ "type": "Feature", "properties": { "state": "Alabama", "address": "170 County Road 774 Cullman 35055, United States", "company": null, "plant_access": 4 }, "geometry": { "type": "Point", "coordinates": [ -86.675713, 34.171635 ] } },
{ "type": "Feature", "properties": { "state": "Alabama", "address": "745 Gandys Cove Road Falkville 35622, United States", "company": null, "plant_access": 4 }, "geometry": { "type": "Point", "coordinates": [ -86.791939, 34.360317 ] } },
{ "type": "Feature", "properties": { "state": "Alabama", "address": "Unnamed Road Samson 36477, United States", "company": null, "plant_access": 3 }, "geometry": { "type": "Point", "coordinates": [ -86.111763, 31.073652 ] } },
{ "type": "Feature", "properties": { "state": "Alabama", "address": "1032 County Road 107 Brundidge 36010, United States", "company": null, "plant_access": 4 }, "geometry": { "type": "Point", "coordinates": [ -85.871681, 31.595997 ] } },
{ "type": "Feature", "properties": { "state": "Alabama", "address": "1091 County Road 114 Town Creek 35672, United States", "company": null, "plant_access": 2 }, "geometry": { "type": "Point", "coordinates": [ -87.419785, 34.49757 ] } },
{ "type": "Feature", "properties": { "state": "Alabama", "address": "3432 County Road 141 Ider 35981, United States", "company": null, "plant_access": 4 }, "geometry": { "type": "Point", "coordinates": [ -85.639091, 34.749279 ] } },
{ "type": "Feature", "properties": { "state": "Alabama", "address": "1373 Mount Carmel Road Altoona 35952, United States", "company": null, "plant_access": 4 }, "geometry": { "type": "Point", "coordinates": [ -86.343971, 34.10894 ] } },
{ "type": "Feature", "properties": { "state": "Alabama", "address": "313 Galberry Special Road Kinston 36453, United States", "company": null, "plant_access": 3 }, "geometry": { "type": "Point", "coordinates": [ -86.135185, 31.151636 ] } },
{ "type": "Feature", "properties": { "state": "Alabama", "address": "3100 County Highway 35 Horton 35980, United States", "company": null, "plant_access": 4 }, "geometry": { "type": "Point", "coordinates": [ -86.407745, 34.170097 ] } },
{ "type": "Feature", "properties": { "state": "Alabama", "address": "2240 County Road 837 Boaz 35957, United States", "company": null, "plant_access": 4 }, "geometry": { "type": "Point", "coordinates": [ -86.077705, 34.204628 ] } },
{ "type": "Feature", "properties": { "state": "Alabama", "address": "8500 Selma Highway Montgomery 36108, United States", "company": null, "plant_access": 2 }, "geometry": { "type": "Point", "coordinates": [ -86.454613, 32.299599 ] } },
{ "type": "Feature", "properties": { "state": "Alabama", "address": "8606 Nixon Chapel Road Horton 35980, United States", "company": null, "plant_access": 4 }, "geometry": { "type": "Point", "coordinates": [ -86.391991, 34.196133 ] } },
{ "type": "Feature", "properties": { "state": "Alabama", "address": "20611 U.S. 84 Andalusia 36421, United States", "company": null, "plant_access": 2 }, "geometry": { "type": "Point", "coordinates": [ -86.373611, 31.290277 ] } },
{ "type": "Feature", "properties": { "state": "Alabama", "address": "4855 County Road 284 Courtland 35618, United States", "company": null, "plant_access": 2 }, "geometry": { "type": "Point", "coordinates": [ -87.307297, 34.588558 ] } },
{ "type": "Feature", "properties": { "state": "Alabama", "address": "667 U.S. 11 Collinsville 35961, United States", "company": null, "plant_access": 4 }, "geometry": { "type": "Point", "coordinates": [ -85.908218, 34.210976 ] } },
{ "type": "Feature", "properties": { "state": "Alabama", "address": "811 County Road 7 Newville 36353, United States", "company": null, "plant_access": 4 }, "geometry": { "type": "Point", "coordinates": [ -85.408401, 31.530716 ] } },
{ "type": "Feature", "properties": { "state": "Alabama", "address": "455 County Road 50 Mount Hope 35651, United States", "company": null, "plant_access": 2 }, "geometry": { "type": "Point", "coordinates": [ -87.445251, 34.476765 ] } },
{ "type": "Feature", "properties": { "state": "Alabama", "address": "538 County Road 73 Headland 36345, United States", "company": null, "plant_access": 4 }, "geometry": { "type": "Point", "coordinates": [ -85.418526, 31.398363 ] } },
{ "type": "Feature", "properties": { "state": "Alabama", "address": "1360 Dailey Chapel Road Oneonta 35121, United States", "company": null, "plant_access": 4 }, "geometry": { "type": "Point", "coordinates": [ -86.356331, 33.939461 ] } },
{ "type": "Feature", "properties": { "state": "Alabama", "address": "8510 County Road 23 Mount Hope 35651, United States", "company": null, "plant_access": 2 }, "geometry": { "type": "Point", "coordinates": [ -87.452789, 34.493839 ] } },
{ "type": "Feature", "properties": { "state": "Alabama", "address": "904 Twin Valley Road Nauvoo 35578, United States", "company": null, "plant_access": 2 }, "geometry": { "type": "Point", "coordinates": [ -87.460114, 33.993195 ] } },
{ "type": "Feature", "properties": { "state": "Alabama", "address": "245 Loop Road Tuscumbia 35674, United States", "company": null, "plant_access": 2 }, "geometry": { "type": "Point", "coordinates": [ -87.791862, 34.622704 ] } },
{ "type": "Feature", "properties": { "state": "Alabama", "address": "15105 Ripley Road Athens 35611, United States", "company": null, "plant_access": 1 }, "geometry": { "type": "Point", "coordinates": [ -87.051598, 34.752983 ] } },
{ "type": "Feature", "properties": { "state": "Alabama", "address": "47700 Alabama 75 Crossville 35962, United States", "company": null, "plant_access": 4 }, "geometry": { "type": "Point", "coordinates": [ -86.092636, 34.309841 ] } },
{ "type": "Feature", "properties": { "state": "Alabama", "address": "1828 County Road 437 Opp 36467, United States", "company": null, "plant_access": 3 }, "geometry": { "type": "Point", "coordinates": [ -86.18087, 31.313997 ] } },
{ "type": "Feature", "properties": { "state": "Alabama", "address": "160 Brentwood Lane Arab 35016, United States", "company": null, "plant_access": 4 }, "geometry": { "type": "Point", "coordinates": [ -86.449669, 34.321709 ] } },
{ "type": "Feature", "properties": { "state": "Alabama", "address": "1563 Kennamer Farm Road Albertville 35951, United States", "company": null, "plant_access": 4 }, "geometry": { "type": "Point", "coordinates": [ -86.124329, 34.390785 ] } },
{ "type": "Feature", "properties": { "state": "Alabama", "address": "10891 Choccolocco Road Anniston 36207, United States", "company": null, "plant_access": 3 }, "geometry": { "type": "Point", "coordinates": [ -85.69799, 33.739632 ] } },
{ "type": "Feature", "properties": { "state": "Alabama", "address": "560 Old Gallant Road Attalla 35954, United States", "company": null, "plant_access": 4 }, "geometry": { "type": "Point", "coordinates": [ -86.161049, 34.036549 ] } },
{ "type": "Feature", "properties": { "state": "Alabama", "address": "2453 County Road 15 Ariton 36311, United States", "company": null, "plant_access": 4 }, "geometry": { "type": "Point", "coordinates": [ -85.582352, 31.538788 ] } },
{ "type": "Feature", "properties": { "state": "Alabama", "address": "128 County Road 462 Pisgah 35765, United States", "company": null, "plant_access": 3 }, "geometry": { "type": "Point", "coordinates": [ -85.858337, 34.706642 ] } },
{ "type": "Feature", "properties": { "state": "Alabama", "address": "1505 Houston Loop Road West Fort Payne 35968, United States", "company": null, "plant_access": 4 }, "geometry": { "type": "Point", "coordinates": [ -85.74189, 34.462723 ] } },
{ "type": "Feature", "properties": { "state": "Alabama", "address": "30423 County Road 38 Opp 36467, United States", "company": null, "plant_access": 2 }, "geometry": { "type": "Point", "coordinates": [ -86.198326, 31.319754 ] } },
{ "type": "Feature", "properties": { "state": "Alabama", "address": "1200 Baker Road Albertville 35951, United States", "company": null, "plant_access": 4 }, "geometry": { "type": "Point", "coordinates": [ -86.114059, 34.36071 ] } },
{ "type": "Feature", "properties": { "state": "Alabama", "address": "2839 Gary Barker Road Samson 36477, United States", "company": null, "plant_access": 3 }, "geometry": { "type": "Point", "coordinates": [ -86.1008, 30.99498 ] } },
{ "type": "Feature", "properties": { "state": "Alabama", "address": "70 Rock Hill Road Guntersville 35976, United States", "company": null, "plant_access": 4 }, "geometry": { "type": "Point", "coordinates": [ -86.405136, 34.295216 ] } },
{ "type": "Feature", "properties": { "state": "Alabama", "address": "5595 County Road 460 Moulton 35650, United States", "company": null, "plant_access": 2 }, "geometry": { "type": "Point", "coordinates": [ -87.437454, 34.4725 ] } },
{ "type": "Feature", "properties": { "state": "Alabama", "address": "1015 County Road 32 Wedowee 36278, United States", "company": null, "plant_access": 1 }, "geometry": { "type": "Point", "coordinates": [ -85.518906, 33.329285 ] } },
{ "type": "Feature", "properties": { "state": "Alabama", "address": "518 Herbert Windle Road Reform 35481, United States", "company": null, "plant_access": 1 }, "geometry": { "type": "Point", "coordinates": [ -88.055717, 33.315361 ] } },
{ "type": "Feature", "properties": { "state": "Alabama", "address": "Unnamed Road Ariton 36311, United States", "company": null, "plant_access": 4 }, "geometry": { "type": "Point", "coordinates": [ -85.673325, 31.630068 ] } },
{ "type": "Feature", "properties": { "state": "Alabama", "address": "BRDN SPRNGS 36272, United States", "company": null, "plant_access": 4 }, "geometry": { "type": "Point", "coordinates": [ -85.706963, 33.983959 ] } },
{ "type": "Feature", "properties": { "state": "Alabama", "address": "10171 County Road 87 Roanoke 36274, United States", "company": null, "plant_access": 2 }, "geometry": { "type": "Point", "coordinates": [ -85.308266, 33.281921 ] } },
{ "type": "Feature", "properties": { "state": "Alabama", "address": "655 Revels Farm Road Coffee Springs 36318, United States", "company": null, "plant_access": 3 }, "geometry": { "type": "Point", "coordinates": [ -85.954407, 31.117605 ] } },
{ "type": "Feature", "properties": { "state": "Alabama", "address": "840 Covie Road Boaz 35957, United States", "company": null, "plant_access": 4 }, "geometry": { "type": "Point", "coordinates": [ -86.364983, 34.137459 ] } },
{ "type": "Feature", "properties": { "state": "Alabama", "address": "Unnamed Road Guntersville 35976, United States", "company": null, "plant_access": 4 }, "geometry": { "type": "Point", "coordinates": [ -86.4505, 34.224903 ] } },
{ "type": "Feature", "properties": { "state": "Alabama", "address": "2259 Alabama 165 Eufaula 36027, United States", "company": null, "plant_access": 2 }, "geometry": { "type": "Point", "coordinates": [ -85.080643, 32.11533 ] } },
{ "type": "Feature", "properties": { "state": "Alabama", "address": "25 Robbie Road Eufaula 36027, United States", "company": null, "plant_access": 2 }, "geometry": { "type": "Point", "coordinates": [ -85.076141, 32.112759 ] } },
{ "type": "Feature", "properties": { "state": "Alabama", "address": "6659 U.S. 431 Pittsview 36871, United States", "company": null, "plant_access": 2 }, "geometry": { "type": "Point", "coordinates": [ -85.144707, 32.066654 ] } },
{ "type": "Feature", "properties": { "state": "Alabama", "address": "4957 County Road 150 Dawson 35963, United States", "company": null, "plant_access": 4 }, "geometry": { "type": "Point", "coordinates": [ -85.94062, 34.379715 ] } },
{ "type": "Feature", "properties": { "state": "Alabama", "address": "742 Greenleaf Road Honoraville 36042, United States", "company": null, "plant_access": 2 }, "geometry": { "type": "Point", "coordinates": [ -86.443382, 31.844019 ] } },
{ "type": "Feature", "properties": { "state": "Alabama", "address": "4195 County Road 343 Mount Hope 35651, United States", "company": null, "plant_access": 2 }, "geometry": { "type": "Point", "coordinates": [ -87.458199, 34.51572 ] } },
{ "type": "Feature", "properties": { "state": "Alabama", "address": "3146 County Road 2262 Troy 36079, United States", "company": null, "plant_access": 4 }, "geometry": { "type": "Point", "coordinates": [ -86.021942, 31.665833 ] } },
{ "type": "Feature", "properties": { "state": "Alabama", "address": "353 Fluttering Spring Road Brilliant 35548, United States", "company": null, "plant_access": 2 }, "geometry": { "type": "Point", "coordinates": [ -87.745178, 34.023491 ] } },
{ "type": "Feature", "properties": { "state": "Alabama", "address": "297 Bowden Road Pittsview 36871, United States", "company": null, "plant_access": 2 }, "geometry": { "type": "Point", "coordinates": [ -85.126869, 32.083225 ] } },
{ "type": "Feature", "properties": { "state": "Alabama", "address": "6125 County Road 20 Ozark 36360, United States", "company": null, "plant_access": 4 }, "geometry": { "type": "Point", "coordinates": [ -85.563728, 31.387196 ] } },
{ "type": "Feature", "properties": { "state": "Alabama", "address": "385 Larue Circle Blountsville 35031, United States", "company": null, "plant_access": 4 }, "geometry": { "type": "Point", "coordinates": [ -86.469353, 34.088634 ] } },
{ "type": "Feature", "properties": { "state": "Alabama", "address": "268 County Road 20 Louisville 36048, United States", "company": null, "plant_access": 4 }, "geometry": { "type": "Point", "coordinates": [ -85.538147, 31.775312 ] } },
{ "type": "Feature", "properties": { "state": "Alabama", "address": "2843 County Road 34 Centre 35960, United States", "company": null, "plant_access": 4 }, "geometry": { "type": "Point", "coordinates": [ -85.555511, 34.085876 ] } },
{ "type": "Feature", "properties": { "state": "Alabama", "address": "13967 Alabama 105 Clopton 36317, United States", "company": null, "plant_access": 4 }, "geometry": { "type": "Point", "coordinates": [ -85.439934, 31.606674 ] } },
{ "type": "Feature", "properties": { "state": "Alabama", "address": "3987 County Road 76 Fyffe 35971, United States", "company": null, "plant_access": 4 }, "geometry": { "type": "Point", "coordinates": [ -85.976112, 34.428612 ] } },
{ "type": "Feature", "properties": { "state": "Alabama", "address": "5479 County Road 3319 Troy 36079, United States", "company": null, "plant_access": 4 }, "geometry": { "type": "Point", "coordinates": [ -85.909393, 31.712578 ] } },
{ "type": "Feature", "properties": { "state": "Alabama", "address": "1350 County Road 45 Piedmont 36272, United States", "company": null, "plant_access": 4 }, "geometry": { "type": "Point", "coordinates": [ -85.545601, 34.007469 ] } },
{ "type": "Feature", "properties": { "state": "Alabama", "address": "126 McKay Road Lineville 36266, United States", "company": null, "plant_access": 2 }, "geometry": { "type": "Point", "coordinates": [ -85.715652, 33.36747 ] } },
{ "type": "Feature", "properties": { "state": "Alabama", "address": "8047 Henry County 74 Shorterville 36373, United States", "company": null, "plant_access": 3 }, "geometry": { "type": "Point", "coordinates": [ -85.176491, 31.487642 ] } },
{ "type": "Feature", "properties": { "state": "Alabama", "address": "905 County Road 560 Fort Payne 35968, United States", "company": null, "plant_access": 4 }, "geometry": { "type": "Point", "coordinates": [ -85.805687, 34.458179 ] } },
{ "type": "Feature", "properties": { "state": "Alabama", "address": "1495 New Friendship Road Union Grove 35175, United States", "company": null, "plant_access": 4 }, "geometry": { "type": "Point", "coordinates": [ -86.452538, 34.381023 ] } },
{ "type": "Feature", "properties": { "state": "Alabama", "address": "1863 County Road 6631 Banks 36005, United States", "company": null, "plant_access": 4 }, "geometry": { "type": "Point", "coordinates": [ -85.698059, 31.795279 ] } },
{ "type": "Feature", "properties": { "state": "Alabama", "address": "County Road 134 Haleyville 35565, United States", "company": null, "plant_access": 3 }, "geometry": { "type": "Point", "coordinates": [ -87.572571, 34.346443 ] } },
{ "type": "Feature", "properties": { "state": "Alabama", "address": "60 Howard Steen Road Forest Home 36030, United States", "company": null, "plant_access": 1 }, "geometry": { "type": "Point", "coordinates": [ -86.881409, 31.896782 ] } },
{ "type": "Feature", "properties": { "state": "Alabama", "address": "672 Coal Mine Road Boaz 35957, United States", "company": null, "plant_access": 4 }, "geometry": { "type": "Point", "coordinates": [ -86.258049, 34.177471 ] } },
{ "type": "Feature", "properties": { "state": "Alabama", "address": "98 County Road 711 Enterprise 36330, United States", "company": null, "plant_access": 3 }, "geometry": { "type": "Point", "coordinates": [ -85.871948, 31.273819 ] } },
{ "type": "Feature", "properties": { "state": "Alabama", "address": "503 County Road 473 Dutton 35744, United States", "company": null, "plant_access": 4 }, "geometry": { "type": "Point", "coordinates": [ -85.887901, 34.60844 ] } },
{ "type": "Feature", "properties": { "state": "Alabama", "address": "1067 County Road 473 Dutton 35744, United States", "company": null, "plant_access": 4 }, "geometry": { "type": "Point", "coordinates": [ -85.875008, 34.610218 ] } },
{ "type": "Feature", "properties": { "state": "Alabama", "address": "645 Graben Road Lineville 36266, United States", "company": null, "plant_access": 2 }, "geometry": { "type": "Point", "coordinates": [ -85.694527, 33.344872 ] } },
{ "type": "Feature", "properties": { "state": "Alabama", "address": "191 Morrison Road Jasper 35504, United States", "company": null, "plant_access": 2 }, "geometry": { "type": "Point", "coordinates": [ -87.196281, 33.867706 ] } },
{ "type": "Feature", "properties": { "state": "Alabama", "address": "1253 Perdue Road Luverne 36049, United States", "company": null, "plant_access": 4 }, "geometry": { "type": "Point", "coordinates": [ -86.316185, 31.835255 ] } },
{ "type": "Feature", "properties": { "state": "Alabama", "address": "Unnamed Road Goshen 36035, United States", "company": null, "plant_access": 4 }, "geometry": { "type": "Point", "coordinates": [ -86.118797, 31.649494 ] } },
{ "type": "Feature", "properties": { "state": "Alabama", "address": "Old Geneva Road Samson 36477, United States", "company": null, "plant_access": 3 }, "geometry": { "type": "Point", "coordinates": [ -86.020416, 31.112516 ] } },
{ "type": "Feature", "properties": { "state": "Alabama", "address": "649 County Highway 42 Oneonta 35121, United States", "company": null, "plant_access": 4 }, "geometry": { "type": "Point", "coordinates": [ -86.427238, 34.000778 ] } },
{ "type": "Feature", "properties": { "state": "Alabama", "address": "2097 County Road 58 Albertville 35951, United States", "company": null, "plant_access": 4 }, "geometry": { "type": "Point", "coordinates": [ -86.049568, 34.36982 ] } },
{ "type": "Feature", "properties": { "state": "Alabama", "address": "1287 1339 E Neva Drive Geneva 36340, United States", "company": null, "plant_access": 3 }, "geometry": { "type": "Point", "coordinates": [ -85.866112, 31.088057 ] } },
{ "type": "Feature", "properties": { "state": "Alabama", "address": "880 Egypt Road Altoona 35952, United States", "company": null, "plant_access": 4 }, "geometry": { "type": "Point", "coordinates": [ -86.172462, 34.069927 ] } },
{ "type": "Feature", "properties": { "state": "Alabama", "address": "59 Mount Mariah Circle Valhermoso Springs 35775, United States", "company": null, "plant_access": 3 }, "geometry": { "type": "Point", "coordinates": [ -86.699532, 34.549637 ] } },
{ "type": "Feature", "properties": { "state": "Alabama", "address": "321 County Road 9 Graham 36263, United States", "company": null, "plant_access": 1 }, "geometry": { "type": "Point", "coordinates": [ -85.404274, 33.447281 ] } },
{ "type": "Feature", "properties": { "state": "Alabama", "address": "299 Gault Lane Spruce Pine 35585, United States", "company": null, "plant_access": 2 }, "geometry": { "type": "Point", "coordinates": [ -87.744873, 34.428993 ] } },
{ "type": "Feature", "properties": { "state": "Alabama", "address": "1163 County Road 440 Heflin 36264, United States", "company": null, "plant_access": 2 }, "geometry": { "type": "Point", "coordinates": [ -85.429626, 33.63863 ] } },
{ "type": "Feature", "properties": { "state": "Alabama", "address": "3481 Alabama 51 Enterprise 36330, United States", "company": null, "plant_access": 4 }, "geometry": { "type": "Point", "coordinates": [ -85.896477, 31.392536 ] } },
{ "type": "Feature", "properties": { "state": "Alabama", "address": "2441 County Road 99 Newville 36353, United States", "company": null, "plant_access": 4 }, "geometry": { "type": "Point", "coordinates": [ -85.261086, 31.502169 ] } },
{ "type": "Feature", "properties": { "state": "Alabama", "address": "1908 County Road 231 Moulton 35650, United States", "company": null, "plant_access": 4 }, "geometry": { "type": "Point", "coordinates": [ -87.244102, 34.52985 ] } },
{ "type": "Feature", "properties": { "state": "Alabama", "address": "279 West Bryan Street Luverne 36049, United States", "company": null, "plant_access": 4 }, "geometry": { "type": "Point", "coordinates": [ -86.32222, 31.730278 ] } },
{ "type": "Feature", "properties": { "state": "Alabama", "address": "1380 County Road 1224 Vinemont 35179, United States", "company": null, "plant_access": 4 }, "geometry": { "type": "Point", "coordinates": [ -86.966324, 34.266087 ] } },
{ "type": "Feature", "properties": { "state": "Alabama", "address": "131 Lake Lane Headland 36345, United States", "company": null, "plant_access": 4 }, "geometry": { "type": "Point", "coordinates": [ -85.314842, 31.348864 ] } },
{ "type": "Feature", "properties": { "state": "Alabama", "address": "1581 Henry County 34 Shorterville 36373, United States", "company": null, "plant_access": 2 }, "geometry": { "type": "Point", "coordinates": [ -85.081902, 31.505127 ] } },
{ "type": "Feature", "properties": { "state": "Alabama", "address": "785 Lee Road Southwest Hartselle 35640, United States", "company": null, "plant_access": 4 }, "geometry": { "type": "Point", "coordinates": [ -86.991074, 34.381516 ] } },
{ "type": "Feature", "properties": { "state": "Alabama", "address": "County Road 684 Ranburne 36273, United States", "company": null, "plant_access": 1 }, "geometry": { "type": "Point", "coordinates": [ -85.327766, 33.494774 ] } },
{ "type": "Feature", "properties": { "state": "Alabama", "address": "729 Kelley Road Phil Campbell 35581, United States", "company": null, "plant_access": 3 }, "geometry": { "type": "Point", "coordinates": [ -87.676376, 34.317554 ] } },
{ "type": "Feature", "properties": { "state": "Alabama", "address": "2260 County Road 95 Ranburne 36273, United States", "company": null, "plant_access": 1 }, "geometry": { "type": "Point", "coordinates": [ -85.340195, 33.590179 ] } },
{ "type": "Feature", "properties": { "state": "Alabama", "address": "2365 County Road 2225 Troy 36079, United States", "company": null, "plant_access": 4 }, "geometry": { "type": "Point", "coordinates": [ -86.000534, 31.737843 ] } },
{ "type": "Feature", "properties": { "state": "Alabama", "address": "946 County Road 564 Midland City 36350, United States", "company": null, "plant_access": 4 }, "geometry": { "type": "Point", "coordinates": [ -85.488342, 31.389521 ] } },
{ "type": "Feature", "properties": { "state": "Alabama", "address": "292 Hambrick Road Boaz 35957, United States", "company": null, "plant_access": 4 }, "geometry": { "type": "Point", "coordinates": [ -86.299637, 34.164013 ] } },
{ "type": "Feature", "properties": { "state": "Alabama", "address": "Unnamed Road Tuscumbia 35674, United States", "company": null, "plant_access": 2 }, "geometry": { "type": "Point", "coordinates": [ -87.615494, 34.70787 ] } },
{ "type": "Feature", "properties": { "state": "Alabama", "address": "532 Wildfork Road Greenville 36037, United States", "company": null, "plant_access": 1 }, "geometry": { "type": "Point", "coordinates": [ -86.646423, 31.689503 ] } },
{ "type": "Feature", "properties": { "state": "Alabama", "address": "4010 6th Street Tuscumbia 35674, United States", "company": null, "plant_access": 2 }, "geometry": { "type": "Point", "coordinates": [ -87.588013, 34.726761 ] } },
{ "type": "Feature", "properties": { "state": "Alabama", "address": "Unnamed Road Ragland 35131, United States", "company": null, "plant_access": 4 }, "geometry": { "type": "Point", "coordinates": [ -86.257317, 33.695107 ] } },
{ "type": "Feature", "properties": { "state": "Alabama", "address": "A A B Stubbs Road Ozark 36360, United States", "company": null, "plant_access": 4 }, "geometry": { "type": "Point", "coordinates": [ -85.63858, 31.49674 ] } },
{ "type": "Feature", "properties": { "state": "Alabama", "address": "69 Blue Springs Churchrd Clio 36017, United States", "company": null, "plant_access": 4 }, "geometry": { "type": "Point", "coordinates": [ -85.528389, 31.676865 ] } },
{ "type": "Feature", "properties": { "state": "Alabama", "address": "336 County Road 118 Fort Payne 35967, United States", "company": null, "plant_access": 4 }, "geometry": { "type": "Point", "coordinates": [ -85.72805, 34.342014 ] } },
{ "type": "Feature", "properties": { "state": "Alabama", "address": "300 Prairie Road Lineville 36266, United States", "company": null, "plant_access": 2 }, "geometry": { "type": "Point", "coordinates": [ -85.751541, 33.366604 ] } },
{ "type": "Feature", "properties": { "state": "Alabama", "address": "1186 Center Ridge Road Luverne 36049, United States", "company": null, "plant_access": 3 }, "geometry": { "type": "Point", "coordinates": [ -86.377373, 31.790573 ] } },
{ "type": "Feature", "properties": { "state": "Alabama", "address": "3119 Horton-Nixon Chapel Road Horton 35980, United States", "company": null, "plant_access": 4 }, "geometry": { "type": "Point", "coordinates": [ -86.345825, 34.200523 ] } },
{ "type": "Feature", "properties": { "state": "Alabama", "address": "631 Rock Springs Road Albertville 35950, United States", "company": null, "plant_access": 4 }, "geometry": { "type": "Point", "coordinates": [ -86.318687, 34.234013 ] } },
{ "type": "Feature", "properties": { "state": "Alabama", "address": "1888 Alabama 122 New Brockton 36351, United States", "company": null, "plant_access": 4 }, "geometry": { "type": "Point", "coordinates": [ -85.907181, 31.402536 ] } },
{ "type": "Feature", "properties": { "state": "Alabama", "address": "44106 Alabama 79 Blountsville 35031, United States", "company": null, "plant_access": 4 }, "geometry": { "type": "Point", "coordinates": [ -86.541611, 34.090233 ] } },
{ "type": "Feature", "properties": { "state": "Alabama", "address": "Jordan Junction Road Rutledge 36071, United States", "company": null, "plant_access": 3 }, "geometry": { "type": "Point", "coordinates": [ -86.395485, 31.709562 ] } },
{ "type": "Feature", "properties": { "state": "Alabama", "address": "6480 Greenville Highway Luverne 36049, United States", "company": null, "plant_access": 3 }, "geometry": { "type": "Point", "coordinates": [ -86.391281, 31.737026 ] } },
{ "type": "Feature", "properties": { "state": "Alabama", "address": "1797 County Road 129 Wedowee 36278, United States", "company": null, "plant_access": 1 }, "geometry": { "type": "Point", "coordinates": [ -85.528168, 33.325481 ] } },
{ "type": "Feature", "properties": { "state": "Alabama", "address": "2407 County Highway 35 Horton 35980, United States", "company": null, "plant_access": 4 }, "geometry": { "type": "Point", "coordinates": [ -86.418991, 34.168156 ] } },
{ "type": "Feature", "properties": { "state": "Alabama", "address": "25960 Alabama 48 Woodland 36280, United States", "company": null, "plant_access": 1 }, "geometry": { "type": "Point", "coordinates": [ -85.375519, 33.395924 ] } },
{ "type": "Feature", "properties": { "state": "Alabama", "address": "1252 County Road 493 Union Grove 35175, United States", "company": null, "plant_access": 4 }, "geometry": { "type": "Point", "coordinates": [ -86.509125, 34.41835 ] } },
{ "type": "Feature", "properties": { "state": "Alabama", "address": "4401 County Road 164 Moulton 35650, United States", "company": null, "plant_access": 2 }, "geometry": { "type": "Point", "coordinates": [ -87.373932, 34.529228 ] } },
{ "type": "Feature", "properties": { "state": "Alabama", "address": "787 County Road 76 Haleyville 35565, United States", "company": null, "plant_access": 2 }, "geometry": { "type": "Point", "coordinates": [ -87.641151, 34.193626 ] } },
{ "type": "Feature", "properties": { "state": "Alabama", "address": "134 County Road 1632 Cullman 35058, United States", "company": null, "plant_access": 4 }, "geometry": { "type": "Point", "coordinates": [ -86.745567, 34.208679 ] } },
{ "type": "Feature", "properties": { "state": "Alabama", "address": "533 County Road 426 Fyffe 35971, United States", "company": null, "plant_access": 4 }, "geometry": { "type": "Point", "coordinates": [ -85.977165, 34.471359 ] } },
{ "type": "Feature", "properties": { "state": "Alabama", "address": "11993 County Road 48 Russellville 35654, United States", "company": null, "plant_access": 2 }, "geometry": { "type": "Point", "coordinates": [ -87.541954, 34.56591 ] } },
{ "type": "Feature", "properties": { "state": "Alabama", "address": "247-169 Spann Road Hartford 36344, United States", "company": null, "plant_access": 3 }, "geometry": { "type": "Point", "coordinates": [ -85.788345, 31.09173 ] } },
{ "type": "Feature", "properties": { "state": "Alabama", "address": "67 Cox Road Skipperville 36374, United States", "company": null, "plant_access": 4 }, "geometry": { "type": "Point", "coordinates": [ -85.465149, 31.545399 ] } },
{ "type": "Feature", "properties": { "state": "Alabama", "address": "210 Durham Road Altoona 35952, United States", "company": null, "plant_access": 4 }, "geometry": { "type": "Point", "coordinates": [ -86.198494, 34.063587 ] } },
{ "type": "Feature", "properties": { "state": "Alabama", "address": "35783 U.S. 43 Hackleburg 35564, United States", "company": null, "plant_access": 3 }, "geometry": { "type": "Point", "coordinates": [ -87.814941, 34.288643 ] } },
{ "type": "Feature", "properties": { "state": "Alabama", "address": "2010 Cherokee County 62 Gaylesville 35973, United States", "company": null, "plant_access": 4 }, "geometry": { "type": "Point", "coordinates": [ -85.523468, 34.416306 ] } },
{ "type": "Feature", "properties": { "state": "Alabama", "address": "7542 County Road 36 Ozark 36360, United States", "company": null, "plant_access": 4 }, "geometry": { "type": "Point", "coordinates": [ -85.488052, 31.479445 ] } },
{ "type": "Feature", "properties": { "state": "Alabama", "address": "617 County Road 261 Lineville 36266, United States", "company": null, "plant_access": 1 }, "geometry": { "type": "Point", "coordinates": [ -85.602615, 33.390385 ] } },
{ "type": "Feature", "properties": { "state": "Alabama", "address": "575 Holland Bridge Road Rutledge 36071, United States", "company": null, "plant_access": 3 }, "geometry": { "type": "Point", "coordinates": [ -86.387772, 31.666937 ] } },
{ "type": "Feature", "properties": { "state": "Alabama", "address": "5769 County Road 446 Collinsville 35961, United States", "company": null, "plant_access": 4 }, "geometry": { "type": "Point", "coordinates": [ -85.868744, 34.406551 ] } },
{ "type": "Feature", "properties": { "state": "Alabama", "address": "1945 Alabama 159 Gordo 35466, United States", "company": null, "plant_access": 1 }, "geometry": { "type": "Point", "coordinates": [ -87.906044, 33.338497 ] } },
{ "type": "Feature", "properties": { "state": "Alabama", "address": "278 County Road 608 Elba 36323, United States", "company": null, "plant_access": 3 }, "geometry": { "type": "Point", "coordinates": [ -86.032219, 31.304474 ] } },
{ "type": "Feature", "properties": { "state": "Alabama", "address": "35 Bolding Road Vina 35593, United States", "company": null, "plant_access": 1 }, "geometry": { "type": "Point", "coordinates": [ -88.039162, 34.44788 ] } },
{ "type": "Feature", "properties": { "state": "Alabama", "address": "6593-6495 Alabama 24 Vina 35593, United States", "company": null, "plant_access": 1 }, "geometry": { "type": "Point", "coordinates": [ -88.044464, 34.450191 ] } },
{ "type": "Feature", "properties": { "state": "Alabama", "address": "1919 County Road 50 Town Creek 35672, United States", "company": null, "plant_access": 2 }, "geometry": { "type": "Point", "coordinates": [ -87.449684, 34.496323 ] } },
{ "type": "Feature", "properties": { "state": "Alabama", "address": "3334 County Highway 73 Heflin 36264, United States", "company": null, "plant_access": 2 }, "geometry": { "type": "Point", "coordinates": [ -85.607529, 33.513824 ] } },
{ "type": "Feature", "properties": { "state": "Alabama", "address": "1237 County Road 698 Pisgah 35765, United States", "company": null, "plant_access": 4 }, "geometry": { "type": "Point", "coordinates": [ -85.800552, 34.603058 ] } },
{ "type": "Feature", "properties": { "state": "Alabama", "address": "4612 County Road 114 Jack 36346, United States", "company": null, "plant_access": 4 }, "geometry": { "type": "Point", "coordinates": [ -85.871567, 31.539133 ] } },
{ "type": "Feature", "properties": { "state": "Alabama", "address": "19560 County Road 59 Woodland 36280, United States", "company": null, "plant_access": 1 }, "geometry": { "type": "Point", "coordinates": [ -85.431229, 33.410015 ] } },
{ "type": "Feature", "properties": { "state": "Alabama", "address": "836 County Road 3319 Troy 36079, United States", "company": null, "plant_access": 4 }, "geometry": { "type": "Point", "coordinates": [ -85.828056, 31.648056 ] } },
{ "type": "Feature", "properties": { "state": "Alabama", "address": "443 County Road 672 Ranburne 36273, United States", "company": null, "plant_access": 1 }, "geometry": { "type": "Point", "coordinates": [ -85.339676, 33.561123 ] } },
{ "type": "Feature", "properties": { "state": "Alabama", "address": "2060 Dickens Field Road Forest Home 36030, United States", "company": null, "plant_access": 1 }, "geometry": { "type": "Point", "coordinates": [ -86.782883, 31.887375 ] } },
{ "type": "Feature", "properties": { "state": "Alabama", "address": "64 County Road 638 Hanceville 35077, United States", "company": null, "plant_access": 4 }, "geometry": { "type": "Point", "coordinates": [ -86.73349, 34.113186 ] } },
{ "type": "Feature", "properties": { "state": "Alabama", "address": "1452 County Road 1486 Cullman 35058, United States", "company": null, "plant_access": 4 }, "geometry": { "type": "Point", "coordinates": [ -86.764656, 34.272926 ] } },
{ "type": "Feature", "properties": { "state": "Alabama", "address": "County Road 155 New Brockton 36351, United States", "company": null, "plant_access": 4 }, "geometry": { "type": "Point", "coordinates": [ -85.869255, 31.435015 ] } },
{ "type": "Feature", "properties": { "state": "Alabama", "address": "5942 Brashiers Chapel Road Arab 35016, United States", "company": null, "plant_access": 4 }, "geometry": { "type": "Point", "coordinates": [ -86.422035, 34.345615 ] } },
{ "type": "Feature", "properties": { "state": "Alabama", "address": "435 Mill Hill Road Attalla 35954, United States", "company": null, "plant_access": 4 }, "geometry": { "type": "Point", "coordinates": [ -86.051018, 34.113903 ] } },
{ "type": "Feature", "properties": { "state": "Alabama", "address": "6752 County Road 51 Woodland 36280, United States", "company": null, "plant_access": 1 }, "geometry": { "type": "Point", "coordinates": [ -85.41153, 33.464909 ] } },
{ "type": "Feature", "properties": { "state": "Alabama", "address": "1069 Pleasant Valley Road Gallant 35972, United States", "company": null, "plant_access": 4 }, "geometry": { "type": "Point", "coordinates": [ -86.310631, 33.946869 ] } },
{ "type": "Feature", "properties": { "state": "Alabama", "address": "Cowen Road Opp 36467, United States", "company": null, "plant_access": 2 }, "geometry": { "type": "Point", "coordinates": [ -86.202942, 31.361118 ] } },
{ "type": "Feature", "properties": { "state": "Alabama", "address": "2265 County Road 782 Ider 35981, United States", "company": null, "plant_access": 4 }, "geometry": { "type": "Point", "coordinates": [ -85.629669, 34.758026 ] } },
{ "type": "Feature", "properties": { "state": "Alabama", "address": "1537 County Road 474 Fort Payne 35967, United States", "company": null, "plant_access": 4 }, "geometry": { "type": "Point", "coordinates": [ -85.621941, 34.427502 ] } },
{ "type": "Feature", "properties": { "state": "Alabama", "address": "12773 Mount Zion Road Ramer 36069, United States", "company": null, "plant_access": 3 }, "geometry": { "type": "Point", "coordinates": [ -86.153084, 32.049248 ] } },
{ "type": "Feature", "properties": { "state": "Alabama", "address": "1040 County Road 40 Newell 36280, United States", "company": null, "plant_access": 2 }, "geometry": { "type": "Point", "coordinates": [ -85.506218, 33.463821 ] } },
{ "type": "Feature", "properties": { "state": "Alabama", "address": "2078 County Road 116 Town Creek 35672, United States", "company": null, "plant_access": 2 }, "geometry": { "type": "Point", "coordinates": [ -87.396927, 34.504776 ] } },
{ "type": "Feature", "properties": { "state": "Alabama", "address": "101 Concord Avenue Enterprise 36330, United States", "company": null, "plant_access": 3 }, "geometry": { "type": "Point", "coordinates": [ -85.795372, 31.32029 ] } },
{ "type": "Feature", "properties": { "state": "Alabama", "address": "2930 County Road 4413 Banks 36005, United States", "company": null, "plant_access": 4 }, "geometry": { "type": "Point", "coordinates": [ -85.690453, 31.775486 ] } },
{ "type": "Feature", "properties": { "state": "Alabama", "address": "664-908 County Road 57 Abbeville 36310, United States", "company": null, "plant_access": 3 }, "geometry": { "type": "Point", "coordinates": [ -85.170601, 31.564354 ] } },
{ "type": "Feature", "properties": { "state": "Alabama", "address": "518 Cagle Road Albertville 35951, United States", "company": null, "plant_access": 4 }, "geometry": { "type": "Point", "coordinates": [ -86.140091, 34.431278 ] } },
{ "type": "Feature", "properties": { "state": "Alabama", "address": "1329 County Road 2219 Troy 36079, United States", "company": null, "plant_access": 4 }, "geometry": { "type": "Point", "coordinates": [ -86.123886, 31.737778 ] } },
{ "type": "Feature", "properties": { "state": "Alabama", "address": "23016 McCaw Lane Andalusia 36421, United States", "company": null, "plant_access": 2 }, "geometry": { "type": "Point", "coordinates": [ -86.383217, 31.320356 ] } },
{ "type": "Feature", "properties": { "state": "Alabama", "address": "1867 County Road 45 Ranburne 36273, United States", "company": null, "plant_access": 1 }, "geometry": { "type": "Point", "coordinates": [ -85.367134, 33.510693 ] } },
{ "type": "Feature", "properties": { "state": "Alabama", "address": "4984 County Road 87 Russellville 35654, United States", "company": null, "plant_access": 2 }, "geometry": { "type": "Point", "coordinates": [ -87.589172, 34.547138 ] } },
{ "type": "Feature", "properties": { "state": "Alabama", "address": "5661 Popes Chapel Road Ragland 35131, United States", "company": null, "plant_access": 4 }, "geometry": { "type": "Point", "coordinates": [ -86.222778, 33.743397 ] } },
{ "type": "Feature", "properties": { "state": "Alabama", "address": "675 Brown Road Danville 35619, United States", "company": null, "plant_access": 4 }, "geometry": { "type": "Point", "coordinates": [ -87.100655, 34.497047 ] } },
{ "type": "Feature", "properties": { "state": "Alabama", "address": "5163 Sweetwater Road Highland Home 36041, United States", "company": null, "plant_access": 3 }, "geometry": { "type": "Point", "coordinates": [ -86.331955, 31.894932 ] } },
{ "type": "Feature", "properties": { "state": "Alabama", "address": "634 Mathus Road Woodland 36280, United States", "company": null, "plant_access": 2 }, "geometry": { "type": "Point", "coordinates": [ -85.456375, 33.406448 ] } },
{ "type": "Feature", "properties": { "state": "Alabama", "address": "47218 Alabama 75 Crossville 35962, United States", "company": null, "plant_access": 4 }, "geometry": { "type": "Point", "coordinates": [ -86.084999, 34.314999 ] } },
{ "type": "Feature", "properties": { "state": "Alabama", "address": "1019 County Road 120 Ariton 36311, United States", "company": null, "plant_access": 4 }, "geometry": { "type": "Point", "coordinates": [ -85.689911, 31.564346 ] } },
{ "type": "Feature", "properties": { "state": "Alabama", "address": "4866 Henry County 258 Abbeville 36310, United States", "company": null, "plant_access": 4 }, "geometry": { "type": "Point", "coordinates": [ -85.31942, 31.666758 ] } },
{ "type": "Feature", "properties": { "state": "Alabama", "address": "2198 Vadero Road Rutledge 36071, United States", "company": null, "plant_access": 3 }, "geometry": { "type": "Point", "coordinates": [ -86.359154, 31.705412 ] } },
{ "type": "Feature", "properties": { "state": "Alabama", "address": "7710 Alabama 172 Hackleburg 35564, United States", "company": null, "plant_access": 2 }, "geometry": { "type": "Point", "coordinates": [ -87.806, 34.274174 ] } },
{ "type": "Feature", "properties": { "state": "Alabama", "address": "670 County Road 424 Russellville 35653, United States", "company": null, "plant_access": 2 }, "geometry": { "type": "Point", "coordinates": [ -87.957115, 34.481323 ] } },
{ "type": "Feature", "properties": { "state": "Alabama", "address": "5536 County Road 1114 Vinemont 35179, United States", "company": null, "plant_access": 4 }, "geometry": { "type": "Point", "coordinates": [ -86.985229, 34.252998 ] } },
{ "type": "Feature", "properties": { "state": "Alabama", "address": "4741 County Road 12 Hackleburg 35564, United States", "company": null, "plant_access": 2 }, "geometry": { "type": "Point", "coordinates": [ -87.798599, 34.255165 ] } },
{ "type": "Feature", "properties": { "state": "Alabama", "address": "8574 Alabama 134 Elba 36323, United States", "company": null, "plant_access": 3 }, "geometry": { "type": "Point", "coordinates": [ -86.067696, 31.294195 ] } },
{ "type": "Feature", "properties": { "state": "Alabama", "address": "176 Kellem Road Falkville 35622, United States", "company": null, "plant_access": 4 }, "geometry": { "type": "Point", "coordinates": [ -86.84539, 34.312393 ] } },
{ "type": "Feature", "properties": { "state": "Alabama", "address": "299 County Road 27 Mount Hope 35651, United States", "company": null, "plant_access": 2 }, "geometry": { "type": "Point", "coordinates": [ -87.478188, 34.435371 ] } },
{ "type": "Feature", "properties": { "state": "Alabama", "address": "Unnamed Road Brantley 36009, United States", "company": null, "plant_access": 2 }, "geometry": { "type": "Point", "coordinates": [ -86.184631, 31.647465 ] } },
{ "type": "Feature", "properties": { "state": "Alabama", "address": "2530 Highway 81 Phil Campbell 35581, United States", "company": null, "plant_access": 3 }, "geometry": { "type": "Point", "coordinates": [ -87.628052, 34.36697 ] } },
{ "type": "Feature", "properties": { "state": "Alabama", "address": "1274 Mount Carmel Road Altoona 35952, United States", "company": null, "plant_access": 4 }, "geometry": { "type": "Point", "coordinates": [ -86.323433, 34.114418 ] } },
{ "type": "Feature", "properties": { "state": "Alabama", "address": "2579 Quail Tower Road Luverne 36049, United States", "company": null, "plant_access": 3 }, "geometry": { "type": "Point", "coordinates": [ -86.314705, 31.768799 ] } },
{ "type": "Feature", "properties": { "state": "Alabama", "address": "418 County Road 163 Dawson 35963, United States", "company": null, "plant_access": 4 }, "geometry": { "type": "Point", "coordinates": [ -85.971458, 34.333569 ] } },
{ "type": "Feature", "properties": { "state": "Alabama", "address": "5105 CR 3304, TROY AL 36079", "company": null, "plant_access": 4 }, "geometry": { "type": "Point", "coordinates": [ -85.9098425, 31.7472258 ] } },
{ "type": "Feature", "properties": { "state": "Alabama", "address": "833 County Road 138 Jack 36346, United States", "company": null, "plant_access": 4 }, "geometry": { "type": "Point", "coordinates": [ -85.90654, 31.527534 ] } },
{ "type": "Feature", "properties": { "state": "Alabama", "address": "804 Adams Cutoff Delta 36258, United States", "company": null, "plant_access": 2 }, "geometry": { "type": "Point", "coordinates": [ -85.674088, 33.486797 ] } },
{ "type": "Feature", "properties": { "state": "Alabama", "address": "869 Fowler Road Luverne 36049, United States", "company": null, "plant_access": 4 }, "geometry": { "type": "Point", "coordinates": [ -86.268425, 31.82336 ] } },
{ "type": "Feature", "properties": { "state": "Alabama", "address": "3661 County Road 356 Grove Oak 35975, United States", "company": null, "plant_access": 4 }, "geometry": { "type": "Point", "coordinates": [ -86.073784, 34.416866 ] } },
{ "type": "Feature", "properties": { "state": "Alabama", "address": "8806 County Road 59 Roanoke 36274, United States", "company": null, "plant_access": 1 }, "geometry": { "type": "Point", "coordinates": [ -85.380745, 33.282272 ] } },
{ "type": "Feature", "properties": { "state": "Alabama", "address": "75 Dove Lane Anniston 36207, United States", "company": null, "plant_access": 3 }, "geometry": { "type": "Point", "coordinates": [ -85.679375, 33.755001 ] } },
{ "type": "Feature", "properties": { "state": "Alabama", "address": "9832 Wesley Chapel Road Georgiana 36033, United States", "company": null, "plant_access": 2 }, "geometry": { "type": "Point", "coordinates": [ -86.584969, 31.629326 ] } },
{ "type": "Feature", "properties": { "state": "Alabama", "address": "2623 County Road 427 Kinston 36453, United States", "company": null, "plant_access": 3 }, "geometry": { "type": "Point", "coordinates": [ -86.122818, 31.315977 ] } },
{ "type": "Feature", "properties": { "state": "Alabama", "address": "339 Sand Valley Road Attalla 35954, United States", "company": null, "plant_access": 4 }, "geometry": { "type": "Point", "coordinates": [ -86.116898, 34.076031 ] } },
{ "type": "Feature", "properties": { "state": "Alabama", "address": "195 Bates Road Eva 35621, United States", "company": null, "plant_access": 4 }, "geometry": { "type": "Point", "coordinates": [ -86.728249, 34.318657 ] } },
{ "type": "Feature", "properties": { "state": "Alabama", "address": "215 Bryant Road Baileyton 35019, United States", "company": null, "plant_access": 4 }, "geometry": { "type": "Point", "coordinates": [ -86.64492, 34.311512 ] } },
{ "type": "Feature", "properties": { "state": "Alabama", "address": "3939 County Road 43 Russellville 35654, United States", "company": null, "plant_access": 2 }, "geometry": { "type": "Point", "coordinates": [ -87.52758, 34.527588 ] } },
{ "type": "Feature", "properties": { "state": "Alabama", "address": "1728 Tanner Road Danville 35619, United States", "company": null, "plant_access": 4 }, "geometry": { "type": "Point", "coordinates": [ -87.060638, 34.369202 ] } },
{ "type": "Feature", "properties": { "state": "Alabama", "address": "County Road 103 Troy 36081, United States", "company": null, "plant_access": 4 }, "geometry": { "type": "Point", "coordinates": [ -85.961494, 31.882584 ] } },
{ "type": "Feature", "properties": { "state": "Alabama", "address": "2737 County Road 1 Wedowee 36278, United States", "company": null, "plant_access": 1 }, "geometry": { "type": "Point", "coordinates": [ -85.531982, 33.278316 ] } },
{ "type": "Feature", "properties": { "state": "Alabama", "address": "1431 Russell Dairy Road Jasper 35503, United States", "company": null, "plant_access": 2 }, "geometry": { "type": "Point", "coordinates": [ -87.325584, 33.906521 ] } },
{ "type": "Feature", "properties": { "state": "Alabama", "address": "11881 Cherokee County 29 Centre 35960, United States", "company": null, "plant_access": 4 }, "geometry": { "type": "Point", "coordinates": [ -85.480553, 34.14072 ] } },
{ "type": "Feature", "properties": { "state": "Alabama", "address": "118 Eberhart Road Southeast Fort Payne 35967, United States", "company": null, "plant_access": 4 }, "geometry": { "type": "Point", "coordinates": [ -85.698708, 34.412678 ] } },
{ "type": "Feature", "properties": { "state": "Alabama", "address": "360 County Road 151 Moulton 35650, United States", "company": null, "plant_access": 2 }, "geometry": { "type": "Point", "coordinates": [ -87.351135, 34.581593 ] } },
{ "type": "Feature", "properties": { "state": "Alabama", "address": "7033 County Road 31 Lineville 36266, United States", "company": null, "plant_access": 1 }, "geometry": { "type": "Point", "coordinates": [ -85.797005, 33.348 ] } },
{ "type": "Feature", "properties": { "state": "Alabama", "address": "13000 County Road 50 Fyffe 35971, United States", "company": null, "plant_access": 4 }, "geometry": { "type": "Point", "coordinates": [ -86.023384, 34.459106 ] } },